{"type":"FeatureCollection","license":"ODbL-1.0","attribution":"Contains information from OpenStreetMap, available under ODbL 1.0","features":[{"type":"Feature","geometry":{"type":"Point","coordinates":[10.0224828,58.9928755]},"properties":{"id":0,"name":"Stavern Bo & Fritid Bobilpark","type":"motorhome","label":"Wohnmobilstellplatz","place":"Larvik","road":"Minnehallveien","quality":87,"qualityLabel":"Gut dokumentiert","fee":"yes","wheelchair":"","openingHours":"week 1-27, 34-52","website":"https://www.stavernbofritid.no/bobilpark","phone":"+47 33 15 68 00","access":"","electricity":"yes","source":"https://www.openstreetmap.org/way/1203921219","rawName":"Stavern Bo & Fritid Bobilpark","phones":["+47 33 15 68 00"]}},{"type":"Feature","geometry":{"type":"Point","coordinates":[5.3647396,60.3208034]},"properties":{"id":1,"name":"Midttun Motell & Camping","type":"motorhome","label":"Wohnmobilstellplatz","place":"Bergen","road":"Midtunheia","quality":83,"qualityLabel":"Gut dokumentiert","fee":"yes","wheelchair":"no","openingHours":"","website":"http://mmcamp.no/en","phone":"+47 55 10 39 00","access":"","electricity":"yes","source":"https://www.openstreetmap.org/node/5983115043","rawName":"Midttun Motell & Camping","phones":["+47 55 10 39 00"]}},{"type":"Feature","geometry":{"type":"Point","coordinates":[10.4158709,59.2631219]},"properties":{"id":2,"name":"Gunnarsbø bobilparkering","type":"motorhome","label":"Wohnmobilstellplatz","place":"Tønsberg","road":"Nedre Langgate","quality":79,"qualityLabel":"Gut dokumentiert","fee":"yes","wheelchair":"","openingHours":"24/7","website":"https://www.tbgparkering.no/bobilparkering-i-tonsberg/","phone":"","access":"","electricity":"yes","source":"https://www.openstreetmap.org/node/11098905435","rawName":"Gunnarsbø bobilparkering","phones":[]}},{"type":"Feature","geometry":{"type":"Point","coordinates":[10.6525452,63.5571272]},"properties":{"id":3,"name":"Øra bobilcamping","type":"motorhome","label":"Wohnmobilstellplatz","place":"Frosta","road":"Tautervegen","quality":79,"qualityLabel":"Gut dokumentiert","fee":"no","wheelchair":"","openingHours":"24/7","website":"https://www.facebook.com/pages/category/Local-Business/%C3%98ra-Bobilcamping-933756940031825/","phone":"","access":"yes","electricity":"","source":"https://www.openstreetmap.org/way/761092812","rawName":"Øra bobilcamping","phones":[]}},{"type":"Feature","geometry":{"type":"Point","coordinates":[8.616028,58.334126]},"properties":{"id":4,"name":"Marivold Camping","type":"motorhome","label":"Wohnmobilstellplatz","place":"Grimstad","road":"Marivoldveien","quality":78,"qualityLabel":"Gut dokumentiert","fee":"","wheelchair":"","openingHours":"","website":"https://www.marivold.no/","phone":"+47 37 25 70 50","access":"","electricity":"","source":"https://www.openstreetmap.org/node/3663315621","rawName":"Marivold Camping","phones":["+47 37 25 70 50"]}},{"type":"Feature","geometry":{"type":"Point","coordinates":[8.6514202,58.3531842]},"properties":{"id":5,"name":"Moysand Familiecamping","type":"motorhome","label":"Wohnmobilstellplatz","place":"Grimstad","road":"Moysandveien","quality":78,"qualityLabel":"Gut dokumentiert","fee":"","wheelchair":"","openingHours":"","website":"https://www.moysand-familiecamping.no","phone":"+47 37 04 02 09","access":"","electricity":"","source":"https://www.openstreetmap.org/way/433218409","rawName":"Moysand Familiecamping","phones":["+47 37 04 02 09"]}},{"type":"Feature","geometry":{"type":"Point","coordinates":[7.9684031,63.50817]},"properties":{"id":6,"name":"Veiholmen Bobilparkering","type":"motorhome","label":"Wohnmobilstellplatz","place":"Smøla","road":"Skjærgårdsveien","quality":78,"qualityLabel":"Gut dokumentiert","fee":"yes","wheelchair":"yes","openingHours":"","website":"https://havkroa.no/bobilparkering/","phone":"+4747174931","access":"","electricity":"yes","source":"https://www.openstreetmap.org/way/426921074","rawName":"Veiholmen Bobilparkering","phones":["+4747174931"]}},{"type":"Feature","geometry":{"type":"Point","coordinates":[7.8024125,58.6881374]},"properties":{"id":7,"name":"Neset Camping","type":"motorhome","label":"Wohnmobilstellplatz","place":"Bygland","road":"Setesdalsvegen","quality":77,"qualityLabel":"Gut dokumentiert","fee":"yes","wheelchair":"","openingHours":"","website":"https://neset.no","phone":"+47 37 93 42 55","access":"","electricity":"yes","source":"https://www.openstreetmap.org/relation/7426179","rawName":"Neset Camping","phones":["+47 37 93 42 55"]}},{"type":"Feature","geometry":{"type":"Point","coordinates":[10.2210617,59.124912]},"properties":{"id":8,"name":"Sandefjord bobilpark","type":"motorhome","label":"Wohnmobilstellplatz","place":"Sandefjord","road":"Sandefjordsveien","quality":77,"qualityLabel":"Gut dokumentiert","fee":"yes","wheelchair":"","openingHours":"","website":"https://www.visitnorway.no/listings/sandefjord-bobilpark/176533/","phone":"+47 46508825","access":"","electricity":"yes","source":"https://www.openstreetmap.org/node/6805574915","rawName":"Sandefjord bobilpark","phones":["+47 46508825"]}},{"type":"Feature","geometry":{"type":"Point","coordinates":[10.9169747,59.2219641]},"properties":{"id":9,"name":"Fredrikstad bobilparkering","type":"motorhome","label":"Wohnmobilstellplatz","place":"Fredrikstad","road":"Mosseveien","quality":77,"qualityLabel":"Gut dokumentiert","fee":"yes","wheelchair":"","openingHours":"","website":"https://www.fredrikstadpark.no/bobilparkering","phone":"+47 90 28 82 02","access":"","electricity":"yes","source":"https://www.openstreetmap.org/way/1527435034","rawName":"Fredrikstad bobilparkering","phones":["+47 90 28 82 02"]}},{"type":"Feature","geometry":{"type":"Point","coordinates":[10.4051088,59.6001156]},"properties":{"id":10,"name":"Homannsberget Camping","type":"motorhome","label":"Wohnmobilstellplatz","place":"Drammen","road":"Petters vei","quality":77,"qualityLabel":"Gut dokumentiert","fee":"yes","wheelchair":"","openingHours":"","website":"https://homannsberget.no/","phone":"+47 33 77 25 63","access":"yes","electricity":"yes","source":"https://www.openstreetmap.org/way/35072156","rawName":"Homannsberget Camping","phones":["+47 33 77 25 63"]}},{"type":"Feature","geometry":{"type":"Point","coordinates":[11.045317,60.81867]},"properties":{"id":11,"name":"Hedmarktoppen Camping","type":"motorhome","label":"Wohnmobilstellplatz","place":"Hamar","road":"Limhusvegen","quality":77,"qualityLabel":"Gut dokumentiert","fee":"yes","wheelchair":"","openingHours":"","website":"https://www.hamar-hytteutleie.no/","phone":"+47 62 51 93 70","access":"","electricity":"","source":"https://www.openstreetmap.org/node/3663315289","rawName":"Hedmarktoppen Camping","phones":["+47 62 51 93 70"]}},{"type":"Feature","geometry":{"type":"Point","coordinates":[10.6410213,59.965321]},"properties":{"id":12,"name":"Topcamp Bogstad","type":"motorhome","label":"Wohnmobilstellplatz","place":"Oslo","road":"Sørkedalsveien","quality":77,"qualityLabel":"Gut dokumentiert","fee":"yes","wheelchair":"","openingHours":"","website":"https://topcamp.no/","phone":"+47 22 51 08 00","access":"","electricity":"yes","source":"https://www.openstreetmap.org/way/178915908","rawName":"Topcamp Bogstad","phones":["+47 22 51 08 00"]}},{"type":"Feature","geometry":{"type":"Point","coordinates":[6.9157565,62.520888]},"properties":{"id":13,"name":"Fjellstova Ørskogfjellet","type":"motorhome","label":"Wohnmobilstellplatz","place":"Ålesund","road":"Ålesundsvegen","quality":77,"qualityLabel":"Gut dokumentiert","fee":"","wheelchair":"yes","openingHours":"","website":"http://www.fjellstova.no","phone":"+47 70 27 03 03","access":"","electricity":"","source":"https://www.openstreetmap.org/way/631657636","rawName":"Fjellstova Ørskogfjellet","phones":["+47 70 27 03 03"]}},{"type":"Feature","geometry":{"type":"Point","coordinates":[12.2161219,65.4791133]},"properties":{"id":14,"name":"Brønnøysund Bobilparkering","type":"motorhome","label":"Wohnmobilstellplatz","place":"Brønnøy","road":"Torghattens gate","quality":77,"qualityLabel":"Gut dokumentiert","fee":"yes","wheelchair":"","openingHours":"","website":"https://www.bronnoy.kommune.no/tjenester/teknisk-bolig-og-eiendom/bobilparkering/","phone":"+47 7501 2000","access":"","electricity":"yes","source":"https://www.openstreetmap.org/way/518191571","rawName":"Brønnøysund Bobilparkering","phones":["+47 7501 2000"]}},{"type":"Feature","geometry":{"type":"Point","coordinates":[5.676241,59.051393]},"properties":{"id":15,"name":"Sokn Camping","type":"motorhome","label":"Wohnmobilstellplatz","place":"Stavanger","road":"Åmøyveien","quality":73,"qualityLabel":"Teilweise geprüft","fee":"","wheelchair":"","openingHours":"24/7","website":"http://betal.sokncamping.no","phone":"","access":"","electricity":"","source":"https://www.openstreetmap.org/node/5700357721","rawName":"Sokn Camping","phones":[]}},{"type":"Feature","geometry":{"type":"Point","coordinates":[12.3581658,66.3721851]},"properties":{"id":16,"name":"Lovund Arkipel Gjestehavn","type":"motorhome","label":"Wohnmobilstellplatz","place":"Lurøy","road":"Hamnholmveien","quality":73,"qualityLabel":"Teilweise geprüft","fee":"","wheelchair":"","openingHours":"24/7","website":"https://gomarina.wtw.no/portinfo/787","phone":"","access":"","electricity":"","source":"https://www.openstreetmap.org/node/13945927701","rawName":"Lovund Arkipel Gjestehavn","phones":[]}},{"type":"Feature","geometry":{"type":"Point","coordinates":[15.7057401,66.7887987]},"properties":{"id":17,"name":"Skaiti Fjellcamp og Fjellteneste","type":"motorhome","label":"Wohnmobilstellplatz","place":"Saltdal","road":"Graddisveien","quality":72,"qualityLabel":"Teilweise geprüft","fee":"yes","wheelchair":"","openingHours":"","website":"https://www.skaitifjellcamp.no/","phone":"+47 478 56 376","access":"","electricity":"yes","source":"https://www.openstreetmap.org/node/9445232290","rawName":"Skaiti Fjellcamp og Fjellteneste","phones":["+47 478 56 376"]}},{"type":"Feature","geometry":{"type":"Point","coordinates":[8.6771785,58.371461]},"properties":{"id":18,"name":"Bagatell Camping","type":"motorhome","label":"Wohnmobilstellplatz","place":"Grimstad","road":"Verkstedveien","quality":71,"qualityLabel":"Teilweise geprüft","fee":"","wheelchair":"","openingHours":"","website":"https://www.bagatell-camping.no/","phone":"+47 37 04 74 67","access":"","electricity":"","source":"https://www.openstreetmap.org/way/433218408","rawName":"Bagatell Camping","phones":["+47 37 04 74 67"]}},{"type":"Feature","geometry":{"type":"Point","coordinates":[10.7368597,59.2567329]},"properties":{"id":19,"name":"Solviken Feriehjemmet","type":"motorhome","label":"Wohnmobilstellplatz","place":"Fredrikstad","road":"Johnseveien","quality":71,"qualityLabel":"Teilweise geprüft","fee":"","wheelchair":"","openingHours":"","website":"https://feriehjemmet-solviken.no/","phone":"+47 69 33 32 07","access":"","electricity":"","source":"https://www.openstreetmap.org/way/42279147","rawName":"Solviken Feriehjemmet","phones":["+47 69 33 32 07"]}},{"type":"Feature","geometry":{"type":"Point","coordinates":[6.482191,60.849695]},"properties":{"id":20,"name":"Bystøl Camping","type":"motorhome","label":"Wohnmobilstellplatz","place":"Voss","road":"Myrkdalsvegen","quality":71,"qualityLabel":"Teilweise geprüft","fee":"","wheelchair":"","openingHours":"","website":"http://www.bystol-camping-myrkdalen.com","phone":"+47 924 40 415","access":"","electricity":"","source":"https://www.openstreetmap.org/node/3663314542","rawName":"Bystøl Camping","phones":["+47 924 40 415"]}},{"type":"Feature","geometry":{"type":"Point","coordinates":[5.0569715,60.6845112]},"properties":{"id":21,"name":"Sletta Kai og fritid","type":"motorhome","label":"Wohnmobilstellplatz","place":"Alver","road":"Sjøbrekka","quality":71,"qualityLabel":"Teilweise geprüft","fee":"","wheelchair":"","openingHours":"","website":"https://www.facebook.com/Slettakaiogfritid/","phone":"+47 41 23 59 76","access":"","electricity":"","source":"https://www.openstreetmap.org/node/11035705663","rawName":"Sletta Kai og fritid","phones":["+47 41 23 59 76"]}},{"type":"Feature","geometry":{"type":"Point","coordinates":[11.6067838,60.3488612]},"properties":{"id":22,"name":"Songnabben Camping","type":"motorhome","label":"Wohnmobilstellplatz","place":"Nord-Odal","road":"Nord-Odalsvegen","quality":71,"qualityLabel":"Teilweise geprüft","fee":"","wheelchair":"","openingHours":"","website":"https://songnabben.no/","phone":"+47 62 97 37 28","access":"","electricity":"","source":"https://www.openstreetmap.org/way/70036941","rawName":"Songnabben Camping","phones":["+47 62 97 37 28"]}},{"type":"Feature","geometry":{"type":"Point","coordinates":[8.2040458,62.2581665]},"properties":{"id":23,"name":"Bjorli Camping","type":"motorhome","label":"Wohnmobilstellplatz","place":"Lesja","road":"Romsdalsvegen","quality":71,"qualityLabel":"Teilweise geprüft","fee":"","wheelchair":"","openingHours":"","website":"http://www.bjorlicamping.no","phone":"+4790119990","access":"","electricity":"","source":"https://www.openstreetmap.org/way/291695899","rawName":"Bjorli Camping","phones":["+4790119990"]}},{"type":"Feature","geometry":{"type":"Point","coordinates":[11.380905,62.571175]},"properties":{"id":24,"name":"Bobilparkering - Røros IL","type":"motorhome","label":"Wohnmobilstellplatz","place":"Røros","road":"Stamphusveien","quality":71,"qualityLabel":"Teilweise geprüft","fee":"","wheelchair":"","openingHours":"","website":"https://roros-il.no","phone":"+47 40 01 39 75","access":"","electricity":"","source":"https://www.openstreetmap.org/node/9849943719","rawName":"Bobilparkering - Røros IL","phones":["+47 40 01 39 75"]}},{"type":"Feature","geometry":{"type":"Point","coordinates":[29.7168434,70.6318572]},"properties":{"id":25,"name":"Båtsfjord bobilparkering","type":"motorhome","label":"Wohnmobilstellplatz","place":"Båtsfjord","road":"Fomavegen","quality":71,"qualityLabel":"Teilweise geprüft","fee":"","wheelchair":"","openingHours":"","website":"https://www.batsfjordhavn.no/tjenester/bobilparkering","phone":"+47 78 98 35 98","access":"","electricity":"","source":"https://www.openstreetmap.org/way/667973651","rawName":"Båtsfjord bobilparkering","phones":["+47 78 98 35 98"]}},{"type":"Feature","geometry":{"type":"Point","coordinates":[7.1987798,61.2050515]},"properties":{"id":26,"name":"Vesterland Feriepark","type":"motorhome","label":"Wohnmobilstellplatz","place":"Sogndal","road":"Mannhellervegen","quality":70,"qualityLabel":"Teilweise geprüft","fee":"","wheelchair":"","openingHours":"","website":"https://www.vesterland.no/overnatting","phone":"","access":"","electricity":"","source":"https://www.openstreetmap.org/node/3663317763","rawName":"Vesterland Feriepark","phones":[]}},{"type":"Feature","geometry":{"type":"Point","coordinates":[12.09806,65.39252]},"properties":{"id":27,"name":"Torghatten","type":"motorhome","label":"Wohnmobilstellplatz","place":"Brønnøy","road":"Torghattveien","quality":70,"qualityLabel":"Teilweise geprüft","fee":"yes","wheelchair":"limited","openingHours":"","website":"https://torghatten.net/","phone":"","access":"","electricity":"yes","source":"https://www.openstreetmap.org/node/2923195206","rawName":"Torghatten","phones":[]}},{"type":"Feature","geometry":{"type":"Point","coordinates":[10.0457951,59.0010834]},"properties":{"id":28,"name":"Solsiden","type":"motorhome","label":"Wohnmobilstellplatz","place":"Larvik","road":"Floskjærveien","quality":69,"qualityLabel":"Teilweise geprüft","fee":"yes","wheelchair":"","openingHours":"","website":"https://solsidenstavern.no/bobilpark/","phone":"","access":"","electricity":"yes","source":"https://www.openstreetmap.org/relation/20394328","rawName":"Solsiden","phones":[]}},{"type":"Feature","geometry":{"type":"Point","coordinates":[10.4872805,59.4136961]},"properties":{"id":29,"name":"Horten Gjesthavn","type":"motorhome","label":"Wohnmobilstellplatz","place":"Horten","road":"Strandpromenaden","quality":69,"qualityLabel":"Teilweise geprüft","fee":"yes","wheelchair":"","openingHours":"","website":"https://www.hortenhavn.no/bobil/","phone":"","access":"","electricity":"yes","source":"https://www.openstreetmap.org/way/583998524","rawName":"Horten Gjesthavn","phones":[]}},{"type":"Feature","geometry":{"type":"Point","coordinates":[8.5720652,59.8777457]},"properties":{"id":30,"name":"Rjukan Næringspark","type":"motorhome","label":"Wohnmobilstellplatz","place":"Tinn","road":"Hydroparken","quality":69,"qualityLabel":"Teilweise geprüft","fee":"yes","wheelchair":"","openingHours":"","website":"https://www.visitnorway.dk/listings/bobilparkeringen-rjukan/226429/","phone":"","access":"customers","electricity":"","source":"https://www.openstreetmap.org/way/1084282903","rawName":"Rjukan Næringspark","phones":[]}},{"type":"Feature","geometry":{"type":"Point","coordinates":[8.5852652,59.8775256]},"properties":{"id":31,"name":"Rjukan bobilparkering Såheimsveien","type":"motorhome","label":"Wohnmobilstellplatz","place":"Tinn","road":"Såheimsveien","quality":69,"qualityLabel":"Teilweise geprüft","fee":"yes","wheelchair":"","openingHours":"","website":"https://www.visitnorway.dk/listings/bobilparkeringen-rjukan/226429/","phone":"","access":"customers","electricity":"","source":"https://www.openstreetmap.org/way/1084282905","rawName":"Rjukan bobilparkering Såheimsveien","phones":[]}},{"type":"Feature","geometry":{"type":"Point","coordinates":[7.6952651,62.5667089]},"properties":{"id":32,"name":"Bobilparkering Åndalsnes Tindekaia","type":"motorhome","label":"Wohnmobilstellplatz","place":"Rauma","road":"Isfjordsvegen","quality":69,"qualityLabel":"Teilweise geprüft","fee":"yes","wheelchair":"","openingHours":"","website":"https://www.rauma.kommune.no/tjenester/parkering-vei-og-transport/parkering/bobilparkering-andalsnes/","phone":"","access":"","electricity":"no","source":"https://www.openstreetmap.org/way/1221563533","rawName":"Bobilparkering Åndalsnes Tindekaia","phones":[]}},{"type":"Feature","geometry":{"type":"Point","coordinates":[6.1316091,62.469077]},"properties":{"id":33,"name":"Skjerva bobilparkering","type":"motorhome","label":"Wohnmobilstellplatz","place":"Ålesund","road":"Skjervagata","quality":69,"qualityLabel":"Teilweise geprüft","fee":"yes","wheelchair":"","openingHours":"","website":"https://www.alesundbobil.no/parkering/skjerva-bobilparkering/","phone":"","access":"","electricity":"yes","source":"https://www.openstreetmap.org/way/1223800116","rawName":"Skjerva bobilparkering","phones":[]}},{"type":"Feature","geometry":{"type":"Point","coordinates":[7.086424,62.622921]},"properties":{"id":34,"name":"Vestnes bobil- og rasteplass","type":"motorhome","label":"Wohnmobilstellplatz","place":"Vestnes","road":"Stadionvegen","quality":69,"qualityLabel":"Teilweise geprüft","fee":"yes","wheelchair":"","openingHours":"","website":"https://www.vestnes.kommune.no/aktuelt/velkommen-til-vestnes-bobil-og-rasteplass.9855.aspx","phone":"","access":"","electricity":"yes","source":"https://www.openstreetmap.org/way/1212193609","rawName":"Vestnes bobil- og rasteplass","phones":[]}},{"type":"Feature","geometry":{"type":"Point","coordinates":[6.1595271,62.4765966]},"properties":{"id":35,"name":"Hjelsetgården bobilparkering","type":"motorhome","label":"Wohnmobilstellplatz","place":"Ålesund","road":"Sorenskriver Bulls gate","quality":69,"qualityLabel":"Teilweise geprüft","fee":"yes","wheelchair":"","openingHours":"","website":"https://www.alesundbobil.no/parkering/hjelsetgarden-bobilparkering/","phone":"","access":"","electricity":"yes","source":"https://www.openstreetmap.org/node/26861403","rawName":"Hjelsetgården bobilparkering","phones":[]}},{"type":"Feature","geometry":{"type":"Point","coordinates":[14.811941,68.4949145]},"properties":{"id":36,"name":"Melbu båtforening bobilcamp","type":"motorhome","label":"Wohnmobilstellplatz","place":"Hadsel","road":"Neptunveien","quality":69,"qualityLabel":"Teilweise geprüft","fee":"yes","wheelchair":"","openingHours":"","website":"https://www.melbubat.no/bobilcamp","phone":"","access":"","electricity":"","source":"https://www.openstreetmap.org/way/553640806","rawName":"Melbu båtforening bobilcamp","phones":[]}},{"type":"Feature","geometry":{"type":"Point","coordinates":[5.8814462,58.4878866]},"properties":{"id":37,"name":"Lunhulen","type":"motorhome","label":"Wohnmobilstellplatz","place":"Eigersund","road":"Mjåsundveien","quality":66,"qualityLabel":"Teilweise geprüft","fee":"","wheelchair":"","openingHours":"24/7","website":"","phone":"+4792431719","access":"","electricity":"","source":"https://www.openstreetmap.org/node/13767212625","rawName":"Lunhulen","phones":["+4792431719"]}},{"type":"Feature","geometry":{"type":"Point","coordinates":[5.547975,61.577099]},"properties":{"id":38,"name":"Endestad Camping","type":"motorhome","label":"Wohnmobilstellplatz","place":"Kinn","road":"Endestadvegen","quality":66,"qualityLabel":"Teilweise geprüft","fee":"","wheelchair":"","openingHours":"","website":"https://www.endestad-camping.no/","phone":"+4740216571","access":"","electricity":"","source":"https://www.openstreetmap.org/node/5754675621","rawName":"Endestad Camping","phones":["+4740216571"]}},{"type":"Feature","geometry":{"type":"Point","coordinates":[16.0081503,68.4126207]},"properties":{"id":39,"name":"Lødingen Bobilcamp","type":"motorhome","label":"Wohnmobilstellplatz","place":"Lødingen","road":"Molovegen","quality":64,"qualityLabel":"Teilweise geprüft","fee":"yes","wheelchair":"","openingHours":"24/7","website":"","phone":"","access":"","electricity":"yes","source":"https://www.openstreetmap.org/node/1089045766","rawName":"Lødingen Bobilcamp","phones":[]}},{"type":"Feature","geometry":{"type":"Point","coordinates":[23.6756052,70.6632573]},"properties":{"id":40,"name":"Hammerfest havn","type":"motorhome","label":"Wohnmobilstellplatz","place":"Hammerfest","road":"Jernbanetrasken","quality":64,"qualityLabel":"Teilweise geprüft","fee":"yes","wheelchair":"","openingHours":"24/7","website":"","phone":"","access":"","electricity":"yes","source":"https://www.openstreetmap.org/way/912429476","rawName":"Hammerfest havn","phones":[]}},{"type":"Feature","geometry":{"type":"Point","coordinates":[7.0582789,58.1228426]},"properties":{"id":41,"name":"Rosfjord Camping","type":"motorhome","label":"Wohnmobilstellplatz","place":"Lyngdal","road":"Agnefestveien","quality":63,"qualityLabel":"Teilweise geprüft","fee":"","wheelchair":"","openingHours":"","website":"https://www.rosfjordcamping.no/","phone":"","access":"","electricity":"","source":"https://www.openstreetmap.org/way/172957367","rawName":"Rosfjord Camping","phones":[]}},{"type":"Feature","geometry":{"type":"Point","coordinates":[6.0178752,59.0637643]},"properties":{"id":42,"name":"Wohnmobilstellplatz Vaula Gard","type":"motorhome","label":"Wohnmobilstellplatz","place":"Strand","road":"Tjøstheimsvegen","quality":63,"qualityLabel":"Teilweise geprüft","fee":"","wheelchair":"","openingHours":"","website":"https://www.vaulagard.no/","phone":"","access":"","electricity":"","source":"https://www.openstreetmap.org/node/11161573761","rawName":"Wohnmobilstellplatz Vaula Gard","phones":[]}},{"type":"Feature","geometry":{"type":"Point","coordinates":[5.7750766,58.530691]},"properties":{"id":43,"name":"Ogna camping","type":"motorhome","label":"Wohnmobilstellplatz","place":"Hå","road":"Nordsjøvegen","quality":63,"qualityLabel":"Teilweise geprüft","fee":"","wheelchair":"","openingHours":"","website":"https://www.ognacamping.no/","phone":"","access":"","electricity":"yes","source":"https://www.openstreetmap.org/way/111459997","rawName":"Ogna camping","phones":[]}},{"type":"Feature","geometry":{"type":"Point","coordinates":[10.9149947,59.2117727]},"properties":{"id":44,"name":"Værste bobilparkering","type":"motorhome","label":"Wohnmobilstellplatz","place":"Fredrikstad","road":"Selma Nygrens vei","quality":63,"qualityLabel":"Teilweise geprüft","fee":"","wheelchair":"","openingHours":"","website":"https://www.borg-havn.no/bobilparkering/","phone":"","access":"","electricity":"","source":"https://www.openstreetmap.org/way/1532732994","rawName":"Værste bobilparkering","phones":[]}},{"type":"Feature","geometry":{"type":"Point","coordinates":[8.436411,58.5009875]},"properties":{"id":45,"name":"Bjørkeskogen Aktivitetsenter","type":"motorhome","label":"Wohnmobilstellplatz","place":"Froland","road":"Allmannavegen","quality":63,"qualityLabel":"Teilweise geprüft","fee":"","wheelchair":"","openingHours":"","website":"http://bjorkeskogen.com/","phone":"","access":"","electricity":"","source":"https://www.openstreetmap.org/node/9848106663","rawName":"Bjørkeskogen Aktivitetsenter","phones":[]}},{"type":"Feature","geometry":{"type":"Point","coordinates":[10.414326,59.0871252]},"properties":{"id":46,"name":"Havna Camping","type":"motorhome","label":"Wohnmobilstellplatz","place":"Færder","road":"Havnaveien","quality":63,"qualityLabel":"Teilweise geprüft","fee":"","wheelchair":"","openingHours":"","website":"https://havnatjome.no/camping/","phone":"","access":"","electricity":"","source":"https://www.openstreetmap.org/way/857773725","rawName":"Havna Camping","phones":[]}},{"type":"Feature","geometry":{"type":"Point","coordinates":[8.8585339,58.447373]},"properties":{"id":47,"name":"Spornes Bobilcamp","type":"motorhome","label":"Wohnmobilstellplatz","place":"Arendal","road":"Spornesveien","quality":63,"qualityLabel":"Teilweise geprüft","fee":"","wheelchair":"","openingHours":"","website":"https://campio.no/nb/campsite/spornes-bobilcamp","phone":"","access":"","electricity":"yes","source":"https://www.openstreetmap.org/node/13107612770","rawName":"Spornes Bobilcamp","phones":[]}},{"type":"Feature","geometry":{"type":"Point","coordinates":[5.8446053,60.0268813]},"properties":{"id":48,"name":"Røyrane Bobilparkering","type":"motorhome","label":"Wohnmobilstellplatz","place":"Kvinnherad","road":"Ølvesvegen","quality":63,"qualityLabel":"Teilweise geprüft","fee":"","wheelchair":"","openingHours":"","website":"https://royrane.no/","phone":"","access":"","electricity":"yes","source":"https://www.openstreetmap.org/way/348408496","rawName":"Røyrane Bobilparkering","phones":[]}},{"type":"Feature","geometry":{"type":"Point","coordinates":[5.4735893,60.181719]},"properties":{"id":49,"name":"Os Bubil- og Caravanparkering","type":"motorhome","label":"Wohnmobilstellplatz","place":"Bjørnafjorden","road":"Hamnevegen","quality":63,"qualityLabel":"Teilweise geprüft","fee":"","wheelchair":"","openingHours":"","website":"https://osgjestehamn.no/","phone":"","access":"","electricity":"yes","source":"https://www.openstreetmap.org/way/963305722","rawName":"Os Bubil- og Caravanparkering","phones":[]}},{"type":"Feature","geometry":{"type":"Point","coordinates":[5.8987623,59.4964127]},"properties":{"id":50,"name":"Vikedal Båthavn","type":"motorhome","label":"Wohnmobilstellplatz","place":"Vindafjord","road":"Holmen","quality":63,"qualityLabel":"Teilweise geprüft","fee":"","wheelchair":"","openingHours":"","website":"https://vikedal-baathavn.no","phone":"","access":"","electricity":"yes","source":"https://www.openstreetmap.org/way/801406945","rawName":"Vikedal Båthavn","phones":[]}},{"type":"Feature","geometry":{"type":"Point","coordinates":[8.6918753,59.8683805]},"properties":{"id":51,"name":"Langefonn Caravanpark","type":"motorhome","label":"Wohnmobilstellplatz","place":"Tinn","road":"Svineroivegen","quality":63,"qualityLabel":"Teilweise geprüft","fee":"","wheelchair":"","openingHours":"","website":"https://www.facebook.com/langefonn.caravanpark/","phone":"","access":"","electricity":"","source":"https://www.openstreetmap.org/node/6813603279","rawName":"Langefonn Caravanpark","phones":[]}},{"type":"Feature","geometry":{"type":"Point","coordinates":[10.4220307,59.5283826]},"properties":{"id":52,"name":"Rødtangen Camping","type":"motorhome","label":"Wohnmobilstellplatz","place":"Asker","road":"Lensmannsveien","quality":63,"qualityLabel":"Teilweise geprüft","fee":"","wheelchair":"","openingHours":"","website":"https://www.sommersomvinter.no/rødtangen-camping","phone":"","access":"","electricity":"","source":"https://www.openstreetmap.org/way/161473739","rawName":"Rødtangen Camping","phones":[]}},{"type":"Feature","geometry":{"type":"Point","coordinates":[10.6781948,59.9192461]},"properties":{"id":53,"name":"Sjølyst bobilparkering","type":"motorhome","label":"Wohnmobilstellplatz","place":"Oslo","road":"Tour de Finance","quality":63,"qualityLabel":"Teilweise geprüft","fee":"","wheelchair":"","openingHours":"","website":"https://sjølystmarina.no/bobil/","phone":"","access":"","electricity":"yes","source":"https://www.openstreetmap.org/way/49139387","rawName":"Sjølyst bobilparkering","phones":[]}},{"type":"Feature","geometry":{"type":"Point","coordinates":[9.3984776,59.8032502]},"properties":{"id":54,"name":"Sjuvasslia Camping","type":"motorhome","label":"Wohnmobilstellplatz","place":"Flesberg","road":"Sjuvasskleiva","quality":63,"qualityLabel":"Teilweise geprüft","fee":"","wheelchair":"","openingHours":"","website":"https://blefjellheisen.com/sjuvasslia-camping","phone":"","access":"","electricity":"yes","source":"https://www.openstreetmap.org/way/444564807","rawName":"Sjuvasslia Camping","phones":[]}},{"type":"Feature","geometry":{"type":"Point","coordinates":[6.1203343,62.1893628]},"properties":{"id":55,"name":"Ørsta Camping","type":"motorhome","label":"Wohnmobilstellplatz","place":"Ørsta","road":"Osholane","quality":63,"qualityLabel":"Teilweise geprüft","fee":"","wheelchair":"","openingHours":"","website":"https://www.orstacamping.no/","phone":"","access":"","electricity":"","source":"https://www.openstreetmap.org/node/860965671","rawName":"Ørsta Camping","phones":[]}},{"type":"Feature","geometry":{"type":"Point","coordinates":[11.380233,61.1384406]},"properties":{"id":56,"name":"Rena Camping","type":"motorhome","label":"Wohnmobilstellplatz","place":"Åmot","road":"Brugata","quality":63,"qualityLabel":"Teilweise geprüft","fee":"","wheelchair":"","openingHours":"","website":"https://www.renacamping.no/","phone":"","access":"","electricity":"","source":"https://www.openstreetmap.org/way/323417403","rawName":"Rena Camping","phones":[]}},{"type":"Feature","geometry":{"type":"Point","coordinates":[7.0962046,62.6208607]},"properties":{"id":57,"name":"Vestnes Småbåtforening","type":"motorhome","label":"Wohnmobilstellplatz","place":"Vestnes","road":"Remmemsvegen","quality":63,"qualityLabel":"Teilweise geprüft","fee":"","wheelchair":"","openingHours":"","website":"https://www.vsbf.no/gjestebrygge-bobil","phone":"","access":"","electricity":"yes","source":"https://www.openstreetmap.org/way/1212178483","rawName":"Vestnes Småbåtforening","phones":[]}},{"type":"Feature","geometry":{"type":"Point","coordinates":[29.7245844,70.634693]},"properties":{"id":58,"name":"Bobilparkering på Servicekaia","type":"motorhome","label":"Wohnmobilstellplatz","place":"Båtsfjord","road":"Strandvegen","quality":63,"qualityLabel":"Teilweise geprüft","fee":"","wheelchair":"","openingHours":"","website":"https://www.batsfjordhavn.no/tjenester/bobilparkering","phone":"","access":"","electricity":"yes","source":"https://www.openstreetmap.org/way/1512254592","rawName":"Bobilparkering på Servicekaia","phones":[]}},{"type":"Feature","geometry":{"type":"Point","coordinates":[9.6852571,61.8080547]},"properties":{"id":59,"name":"Mysusæter","type":"motorhome","label":"Wohnmobilstellplatz","place":"Sel","road":"Furusjøvegen","quality":60,"qualityLabel":"Teilweise geprüft","fee":"yes","wheelchair":"yes","openingHours":"","website":"","phone":"","access":"","electricity":"","source":"https://www.openstreetmap.org/node/13112692501","rawName":"Mysusæter","phones":[]}},{"type":"Feature","geometry":{"type":"Point","coordinates":[14.4115019,68.3895209]},"properties":{"id":60,"name":"Laukvika bobilcamp","type":"motorhome","label":"Wohnmobilstellplatz","place":"Vågan","road":"Moloveien","quality":60,"qualityLabel":"Teilweise geprüft","fee":"yes","wheelchair":"yes","openingHours":"","website":"","phone":"","access":"","electricity":"yes","source":"https://www.openstreetmap.org/way/1191252804","rawName":"Laukvika bobilcamp","phones":[]}},{"type":"Feature","geometry":{"type":"Point","coordinates":[10.32243,59.489569]},"properties":{"id":61,"name":"Hakan Bobilhavn","type":"motorhome","label":"Wohnmobilstellplatz","place":"Holmestrand","road":"Weidemanns gate","quality":58,"qualityLabel":"Teilweise geprüft","fee":"","wheelchair":"","openingHours":"24/7","website":"","phone":"","access":"","electricity":"","source":"https://www.openstreetmap.org/node/8414795917","rawName":"Hakan Bobilhavn","phones":[]}},{"type":"Feature","geometry":{"type":"Point","coordinates":[13.8744189,68.3040453]},"properties":{"id":62,"name":"Vestresand","type":"motorhome","label":"Wohnmobilstellplatz","place":"Vestvågøy","road":"Haverringen","quality":58,"qualityLabel":"Teilweise geprüft","fee":"","wheelchair":"","openingHours":"24/7","website":"","phone":"","access":"","electricity":"","source":"https://www.openstreetmap.org/node/13969023401","rawName":"Vestresand","phones":[]}},{"type":"Feature","geometry":{"type":"Point","coordinates":[15.463197,68.752699]},"properties":{"id":63,"name":"Maurnes småbåthavn","type":"motorhome","label":"Wohnmobilstellplatz","place":"Sortland","road":"Lilandveien","quality":58,"qualityLabel":"Teilweise geprüft","fee":"","wheelchair":"","openingHours":"","website":"https://book.mfsf.no/en","phone":"","access":"","electricity":"","source":"https://www.openstreetmap.org/node/8434253519","rawName":"Maurnes småbåthavn","phones":[]}},{"type":"Feature","geometry":{"type":"Point","coordinates":[24.3896628,70.4478023]},"properties":{"id":64,"name":"Repparfjord Camping og Misjonssenter","type":"motorhome","label":"Wohnmobilstellplatz","place":"Hammerfest","road":"Repparfjordveien","quality":57,"qualityLabel":"Teilweise geprüft","fee":"yes","wheelchair":"","openingHours":"","website":"","phone":"+47 78416165","access":"","electricity":"yes","source":"https://www.openstreetmap.org/way/168282616","rawName":"Repparfjord Camping og Misjonssenter","phones":["+47 78416165"]}},{"type":"Feature","geometry":{"type":"Point","coordinates":[5.7973544,58.5210925]},"properties":{"id":65,"name":"Ogna camping","type":"motorhome","label":"Wohnmobilstellplatz","place":"Hå","road":"Nordsjøvegen","quality":56,"qualityLabel":"Teilweise geprüft","fee":"","wheelchair":"","openingHours":"","website":"","phone":"+47 93 26 63 30","access":"permit","electricity":"","source":"https://www.openstreetmap.org/way/111460029","rawName":"Ogna camping","phones":["+47 93 26 63 30"]}},{"type":"Feature","geometry":{"type":"Point","coordinates":[5.8111329,59.6065084]},"properties":{"id":66,"name":"Frisk Bobilparkering","type":"motorhome","label":"Wohnmobilstellplatz","place":"Vindafjord","road":"Sjoargata","quality":56,"qualityLabel":"Teilweise geprüft","fee":"","wheelchair":"","openingHours":"","website":"","phone":"+47 90 10 59 04","access":"","electricity":"","source":"https://www.openstreetmap.org/node/13308079901","rawName":"Frisk Bobilparkering","phones":["+47 90 10 59 04"]}},{"type":"Feature","geometry":{"type":"Point","coordinates":[15.0266924,68.999026]},"properties":{"id":67,"name":"Nyksund Bobilcamp","type":"motorhome","label":"Wohnmobilstellplatz","place":"Øksnes","road":"Nyksundveien","quality":56,"qualityLabel":"Teilweise geprüft","fee":"","wheelchair":"","openingHours":"","website":"","phone":"+47 90 54 54 66","access":"","electricity":"","source":"https://www.openstreetmap.org/way/978856252","rawName":"Nyksund Bobilcamp","phones":["+47 90 54 54 66"]}},{"type":"Feature","geometry":{"type":"Point","coordinates":[17.827109,68.877955]},"properties":{"id":68,"name":"Brygga bobilparkering","type":"motorhome","label":"Wohnmobilstellplatz","place":"Salangen","road":"Kongsveien","quality":56,"qualityLabel":"Teilweise geprüft","fee":"","wheelchair":"","openingHours":"","website":"","phone":"+47 48 15 53 88","access":"","electricity":"","source":"https://www.openstreetmap.org/way/1265502177","rawName":"Brygga bobilparkering","phones":["+47 48 15 53 88"]}},{"type":"Feature","geometry":{"type":"Point","coordinates":[17.624256,69.094102]},"properties":{"id":69,"name":"Camp Solbergfjord","type":"motorhome","label":"Wohnmobilstellplatz","place":"Dyrøy","road":"Finnlandsveien","quality":56,"qualityLabel":"Teilweise geprüft","fee":"","wheelchair":"","openingHours":"","website":"","phone":"+47 979 58 808","access":"","electricity":"","source":"https://www.openstreetmap.org/node/3663314621","rawName":"Camp Solbergfjord","phones":["+47 979 58 808"]}},{"type":"Feature","geometry":{"type":"Point","coordinates":[6.042697,59.0171409]},"properties":{"id":70,"name":"Wohnmobilstellplatz · Sagholmen","type":"motorhome","label":"Wohnmobilstellplatz","place":"Strand","road":"Sagholmen","quality":55,"qualityLabel":"Teilweise geprüft","fee":"yes","wheelchair":"yes","openingHours":"24/7","website":"","phone":"","access":"","electricity":"yes","source":"https://www.openstreetmap.org/relation/17996643","rawName":"Wohnmobilstellplatz · Sagholmen","phones":[]}},{"type":"Feature","geometry":{"type":"Point","coordinates":[6.0025635,58.4544983]},"properties":{"id":71,"name":"Gruset","type":"motorhome","label":"Wohnmobilstellplatz","place":"Eigersund","road":"Jernbaneveien","quality":54,"qualityLabel":"Vor Ort prüfen","fee":"yes","wheelchair":"","openingHours":"","website":"","phone":"","access":"","electricity":"yes","source":"https://www.openstreetmap.org/way/1215636293","rawName":"Gruset","phones":[]}},{"type":"Feature","geometry":{"type":"Point","coordinates":[6.0065118,58.4484732]},"properties":{"id":72,"name":"Sokndalsveien","type":"motorhome","label":"Wohnmobilstellplatz","place":"Eigersund","road":"Heggdalsveien","quality":54,"qualityLabel":"Vor Ort prüfen","fee":"yes","wheelchair":"","openingHours":"","website":"","phone":"","access":"","electricity":"yes","source":"https://www.openstreetmap.org/way/1215637189","rawName":"Sokndalsveien","phones":[]}},{"type":"Feature","geometry":{"type":"Point","coordinates":[6.8131878,58.0941132]},"properties":{"id":73,"name":"Farsund Bobil Camp","type":"motorhome","label":"Wohnmobilstellplatz","place":"Farsund","road":"Ferjeveien","quality":54,"qualityLabel":"Vor Ort prüfen","fee":"yes","wheelchair":"","openingHours":"","website":"","phone":"","access":"","electricity":"yes","source":"https://www.openstreetmap.org/node/1349959037","rawName":"Farsund Bobil Camp","phones":[]}},{"type":"Feature","geometry":{"type":"Point","coordinates":[6.6907302,58.0966477]},"properties":{"id":74,"name":"Vanse Bobilcamp","type":"motorhome","label":"Wohnmobilstellplatz","place":"Farsund","road":"Olav Selvaags vei","quality":54,"qualityLabel":"Vor Ort prüfen","fee":"yes","wheelchair":"","openingHours":"","website":"","phone":"","access":"","electricity":"yes","source":"https://www.openstreetmap.org/node/9885535883","rawName":"Vanse Bobilcamp","phones":[]}},{"type":"Feature","geometry":{"type":"Point","coordinates":[10.3890819,59.2661616]},"properties":{"id":75,"name":"Bobil Parkering","type":"motorhome","label":"Wohnmobilstellplatz","place":"Færder","road":"Danholmen","quality":54,"qualityLabel":"Vor Ort prüfen","fee":"yes","wheelchair":"","openingHours":"","website":"","phone":"","access":"","electricity":"yes","source":"https://www.openstreetmap.org/way/1204298443","rawName":"Bobil Parkering","phones":[]}},{"type":"Feature","geometry":{"type":"Point","coordinates":[10.0335453,59.0489485]},"properties":{"id":76,"name":"Larvik Bobilhavn","type":"motorhome","label":"Wohnmobilstellplatz","place":"Larvik","road":"Strandpromenaden","quality":54,"qualityLabel":"Vor Ort prüfen","fee":"yes","wheelchair":"","openingHours":"","website":"","phone":"","access":"","electricity":"yes","source":"https://www.openstreetmap.org/way/108246743","rawName":"Larvik Bobilhavn","phones":[]}},{"type":"Feature","geometry":{"type":"Point","coordinates":[5.3586164,60.3540797]},"properties":{"id":77,"name":"Bergenshallen Bobilparkering","type":"motorhome","label":"Wohnmobilstellplatz","place":"Bergen","road":"Vilhelm Bjerknes' vei","quality":54,"qualityLabel":"Vor Ort prüfen","fee":"yes","wheelchair":"","openingHours":"","website":"","phone":"","access":"yes","electricity":"yes","source":"https://www.openstreetmap.org/way/265095327","rawName":"Bergenshallen Bobilparkering","phones":[]}},{"type":"Feature","geometry":{"type":"Point","coordinates":[5.2101903,59.6016049]},"properties":{"id":78,"name":"Langevåg bobilparkering","type":"motorhome","label":"Wohnmobilstellplatz","place":"Bømlo","road":"Hovlandsvegen","quality":54,"qualityLabel":"Vor Ort prüfen","fee":"no","wheelchair":"","openingHours":"","website":"","phone":"","access":"","electricity":"","source":"https://www.openstreetmap.org/node/8926553087","rawName":"Langevåg bobilparkering","phones":[]}},{"type":"Feature","geometry":{"type":"Point","coordinates":[6.2578902,59.4821384]},"properties":{"id":79,"name":"Larvikja","type":"motorhome","label":"Wohnmobilstellplatz","place":"Suldal","road":"Postvegen","quality":54,"qualityLabel":"Vor Ort prüfen","fee":"","wheelchair":"yes","openingHours":"","website":"","phone":"","access":"","electricity":"","source":"https://www.openstreetmap.org/node/9901977439","rawName":"Larvikja","phones":[]}},{"type":"Feature","geometry":{"type":"Point","coordinates":[6.2495774,60.2741176]},"properties":{"id":80,"name":"Jondal Båthamn","type":"motorhome","label":"Wohnmobilstellplatz","place":"Ullensvang","road":"Gamle Sætveitvegen","quality":54,"qualityLabel":"Vor Ort prüfen","fee":"250 kr","wheelchair":"","openingHours":"","website":"","phone":"","access":"","electricity":"yes","source":"https://www.openstreetmap.org/node/6592091062","rawName":"Jondal Båthamn","phones":[]}},{"type":"Feature","geometry":{"type":"Point","coordinates":[4.9136832,60.5156312]},"properties":{"id":81,"name":"Rong bobilparkering","type":"motorhome","label":"Wohnmobilstellplatz","place":"Øygarden","road":"Ternholmvegen","quality":54,"qualityLabel":"Vor Ort prüfen","fee":"no","wheelchair":"","openingHours":"","website":"","phone":"","access":"","electricity":"yes","source":"https://www.openstreetmap.org/relation/8713902","rawName":"Rong bobilparkering","phones":[]}},{"type":"Feature","geometry":{"type":"Point","coordinates":[10.6510083,59.435212]},"properties":{"id":82,"name":"Kanalen bobilparkering","type":"motorhome","label":"Wohnmobilstellplatz","place":"Moss","road":"Værftsgata","quality":54,"qualityLabel":"Vor Ort prüfen","fee":"yes","wheelchair":"","openingHours":"","website":"","phone":"","access":"","electricity":"yes","source":"https://www.openstreetmap.org/way/733986879","rawName":"Kanalen bobilparkering","phones":[]}},{"type":"Feature","geometry":{"type":"Point","coordinates":[9.4300604,59.8597907]},"properties":{"id":83,"name":"Haugen","type":"motorhome","label":"Wohnmobilstellplatz","place":"Flesberg","road":"Haugbruvegen","quality":54,"qualityLabel":"Vor Ort prüfen","fee":"yes","wheelchair":"","openingHours":"","website":"","phone":"","access":"","electricity":"","source":"https://www.openstreetmap.org/node/8919820018","rawName":"Haugen","phones":[]}},{"type":"Feature","geometry":{"type":"Point","coordinates":[5.4331973,62.1548157]},"properties":{"id":84,"name":"Jachthafen Sandvik","type":"motorhome","label":"Wohnmobilstellplatz","place":"Vanylven","road":"Hakallestranda","quality":54,"qualityLabel":"Vor Ort prüfen","fee":"yes","wheelchair":"","openingHours":"","website":"","phone":"","access":"","electricity":"no","source":"https://www.openstreetmap.org/node/4301579801","rawName":"Jachthafen Sandvik","phones":[]}},{"type":"Feature","geometry":{"type":"Point","coordinates":[7.0987224,62.6204085]},"properties":{"id":85,"name":"Livneset Bobilparkering","type":"motorhome","label":"Wohnmobilstellplatz","place":"Vestnes","road":"Remmemsvegen","quality":54,"qualityLabel":"Vor Ort prüfen","fee":"yes","wheelchair":"","openingHours":"","website":"","phone":"","access":"","electricity":"yes","source":"https://www.openstreetmap.org/way/1212126847","rawName":"Livneset Bobilparkering","phones":[]}},{"type":"Feature","geometry":{"type":"Point","coordinates":[9.8586167,63.3141163]},"properties":{"id":86,"name":"Terna Bobilhavn","type":"motorhome","label":"Wohnmobilstellplatz","place":"Orkland","road":"Gammelosveien","quality":54,"qualityLabel":"Vor Ort prüfen","fee":"yes","wheelchair":"","openingHours":"","website":"","phone":"","access":"","electricity":"yes","source":"https://www.openstreetmap.org/way/1212570247","rawName":"Terna Bobilhavn","phones":[]}},{"type":"Feature","geometry":{"type":"Point","coordinates":[9.8834573,62.6567024]},"properties":{"id":87,"name":"Oppdalsporten","type":"motorhome","label":"Wohnmobilstellplatz","place":"Oppdal","road":"Fururingen","quality":54,"qualityLabel":"Vor Ort prüfen","fee":"yes","wheelchair":"","openingHours":"","website":"","phone":"","access":"","electricity":"","source":"https://www.openstreetmap.org/way/202890248","rawName":"Oppdalsporten","phones":[]}},{"type":"Feature","geometry":{"type":"Point","coordinates":[9.9888852,63.4873152]},"properties":{"id":88,"name":"Rødberg Bobilcamp","type":"motorhome","label":"Wohnmobilstellplatz","place":"Indre Fosen","road":"Rødbergsveien","quality":54,"qualityLabel":"Vor Ort prüfen","fee":"yes","wheelchair":"","openingHours":"","website":"","phone":"","access":"","electricity":"yes","source":"https://www.openstreetmap.org/node/11234570035","rawName":"Rødberg Bobilcamp","phones":[]}},{"type":"Feature","geometry":{"type":"Point","coordinates":[11.2782466,63.7398888]},"properties":{"id":89,"name":"Levanger Camping & Fritidspark Moan AS","type":"motorhome","label":"Wohnmobilstellplatz","place":"Levanger","road":"Moafjæra","quality":54,"qualityLabel":"Vor Ort prüfen","fee":"yes","wheelchair":"","openingHours":"","website":"","phone":"","access":"","electricity":"yes","source":"https://www.openstreetmap.org/node/1902791511","rawName":"Levanger Camping & Fritidspark Moan AS","phones":[]}},{"type":"Feature","geometry":{"type":"Point","coordinates":[11.6973023,65.0809093]},"properties":{"id":90,"name":"Leka camping","type":"motorhome","label":"Wohnmobilstellplatz","place":"Leka","road":"Frøvikveien","quality":54,"qualityLabel":"Vor Ort prüfen","fee":"yes","wheelchair":"","openingHours":"","website":"","phone":"","access":"","electricity":"","source":"https://www.openstreetmap.org/node/450253651","rawName":"Leka camping","phones":[]}},{"type":"Feature","geometry":{"type":"Point","coordinates":[14.2154999,68.1635641]},"properties":{"id":91,"name":"Engøya","type":"motorhome","label":"Wohnmobilstellplatz","place":"Vågan","road":"Henningsværveien","quality":54,"qualityLabel":"Vor Ort prüfen","fee":"yes","wheelchair":"","openingHours":"","website":"","phone":"","access":"yes","electricity":"","source":"https://www.openstreetmap.org/way/1111886214","rawName":"Engøya","phones":[]}},{"type":"Feature","geometry":{"type":"Point","coordinates":[13.1390158,68.0883996]},"properties":{"id":92,"name":"Inversant Parking","type":"motorhome","label":"Wohnmobilstellplatz","place":"Flakstad","road":"Strandveien","quality":54,"qualityLabel":"Vor Ort prüfen","fee":"yes","wheelchair":"","openingHours":"","website":"","phone":"","access":"","electricity":"no","source":"https://www.openstreetmap.org/node/13078447956","rawName":"Inversant Parking","phones":[]}},{"type":"Feature","geometry":{"type":"Point","coordinates":[13.1886501,68.0836524]},"properties":{"id":93,"name":"Avløysinga bobilcamping","type":"motorhome","label":"Wohnmobilstellplatz","place":"Flakstad","road":"Røssøystraumbrua","quality":54,"qualityLabel":"Vor Ort prüfen","fee":"no","wheelchair":"","openingHours":"","website":"","phone":"","access":"","electricity":"no","source":"https://www.openstreetmap.org/node/9922135359","rawName":"Avløysinga bobilcamping","phones":[]}},{"type":"Feature","geometry":{"type":"Point","coordinates":[13.0976954,67.9351549]},"properties":{"id":94,"name":"Wohnmobilstellplatz · Reine ytre havn","type":"motorhome","label":"Wohnmobilstellplatz","place":"Reine","road":"Reine ytre havn","quality":52,"qualityLabel":"Vor Ort prüfen","fee":"yes","wheelchair":"yes","openingHours":"","website":"","phone":"","access":"","electricity":"","source":"https://www.openstreetmap.org/node/11539291956","rawName":"Wohnmobilstellplatz · Reine ytre havn","phones":[]}},{"type":"Feature","geometry":{"type":"Point","coordinates":[11.1816524,59.4125843]},"properties":{"id":95,"name":"Nye Glennetangen camping","type":"motorhome","label":"Wohnmobilstellplatz","place":"Skiptvet","road":"Glenneveien","quality":51,"qualityLabel":"Vor Ort prüfen","fee":"","wheelchair":"","openingHours":"","website":"","phone":"+4746674696","access":"","electricity":"","source":"https://www.openstreetmap.org/way/684694081","rawName":"Nye Glennetangen camping","phones":["+4746674696"]}},{"type":"Feature","geometry":{"type":"Point","coordinates":[8.0221975,59.4454323]},"properties":{"id":96,"name":"Dalen Bobilcamp","type":"motorhome","label":"Wohnmobilstellplatz","place":"Tokke","road":"Storvegen","quality":49,"qualityLabel":"Vor Ort prüfen","fee":"yes","wheelchair":"","openingHours":"","website":"","phone":"","access":"","electricity":"yes","source":"https://www.openstreetmap.org/node/6813603280","rawName":"Dalen Bobilcamp","phones":[]}},{"type":"Feature","geometry":{"type":"Point","coordinates":[9.1539897,60.5784373]},"properties":{"id":97,"name":"Trytetjern","type":"motorhome","label":"Wohnmobilstellplatz","place":"Nesbyen","road":"Vassfarvegen","quality":49,"qualityLabel":"Vor Ort prüfen","fee":"yes","wheelchair":"","openingHours":"","website":"","phone":"","access":"","electricity":"no","source":"https://www.openstreetmap.org/node/12115112590","rawName":"Trytetjern","phones":[]}},{"type":"Feature","geometry":{"type":"Point","coordinates":[9.7005266,61.6652324]},"properties":{"id":98,"name":"Sinclair Bobilpark","type":"motorhome","label":"Wohnmobilstellplatz","place":"Nord-Fron","road":"Linvegen","quality":49,"qualityLabel":"Vor Ort prüfen","fee":"no","wheelchair":"","openingHours":"","website":"","phone":"","access":"","electricity":"yes","source":"https://www.openstreetmap.org/node/11039683904","rawName":"Sinclair Bobilpark","phones":[]}},{"type":"Feature","geometry":{"type":"Point","coordinates":[17.9137978,68.6794756]},"properties":{"id":99,"name":"Lapphaugen Turiststajon","type":"motorhome","label":"Wohnmobilstellplatz","place":"Lavangen","road":"General Fleichers vei","quality":49,"qualityLabel":"Vor Ort prüfen","fee":"","wheelchair":"yes","openingHours":"","website":"","phone":"","access":"","electricity":"","source":"https://www.openstreetmap.org/node/4211018689","rawName":"Lapphaugen Turiststajon","phones":[]}},{"type":"Feature","geometry":{"type":"Point","coordinates":[6.0020478,58.4552775]},"properties":{"id":100,"name":"Perrongen","type":"motorhome","label":"Wohnmobilstellplatz","place":"Eigersund","road":"44","quality":48,"qualityLabel":"Vor Ort prüfen","fee":"","wheelchair":"","openingHours":"","website":"","phone":"","access":"","electricity":"yes","source":"https://www.openstreetmap.org/way/1215636292","rawName":"Perrongen","phones":[]}},{"type":"Feature","geometry":{"type":"Point","coordinates":[5.9772036,58.4335909]},"properties":{"id":101,"name":"Hauen Camping","type":"motorhome","label":"Wohnmobilstellplatz","place":"Eigersund","road":"Steinbakken","quality":48,"qualityLabel":"Vor Ort prüfen","fee":"","wheelchair":"","openingHours":"","website":"","phone":"","access":"","electricity":"","source":"https://www.openstreetmap.org/node/1172155199","rawName":"Hauen Camping","phones":[]}},{"type":"Feature","geometry":{"type":"Point","coordinates":[5.550735,58.6949181]},"properties":{"id":102,"name":"Skeie Camping","type":"motorhome","label":"Wohnmobilstellplatz","place":"Klepp","road":"Nordsjøvegen","quality":48,"qualityLabel":"Vor Ort prüfen","fee":"","wheelchair":"","openingHours":"","website":"","phone":"","access":"","electricity":"","source":"https://www.openstreetmap.org/way/311885226","rawName":"Skeie Camping","phones":[]}},{"type":"Feature","geometry":{"type":"Point","coordinates":[6.4464989,58.2951785]},"properties":{"id":103,"name":"ånasira bobilparkering","type":"motorhome","label":"Wohnmobilstellplatz","place":"Sokndal","road":"Eikedalsveien","quality":48,"qualityLabel":"Vor Ort prüfen","fee":"","wheelchair":"","openingHours":"","website":"","phone":"","access":"","electricity":"","source":"https://www.openstreetmap.org/node/9691682255","rawName":"ånasira bobilparkering","phones":[]}},{"type":"Feature","geometry":{"type":"Point","coordinates":[5.5571741,59.2750648]},"properties":{"id":104,"name":"Bobilparkering Kårstø","type":"motorhome","label":"Wohnmobilstellplatz","place":"Tysvær","road":"Årvikvegen","quality":48,"qualityLabel":"Vor Ort prüfen","fee":"","wheelchair":"","openingHours":"","website":"","phone":"","access":"","electricity":"","source":"https://www.openstreetmap.org/node/12114330743","rawName":"Bobilparkering Kårstø","phones":[]}},{"type":"Feature","geometry":{"type":"Point","coordinates":[6.2860686,58.821913]},"properties":{"id":105,"name":"Giljastøl","type":"motorhome","label":"Wohnmobilstellplatz","place":"Gjesdal","road":"Giljastølveien","quality":48,"qualityLabel":"Vor Ort prüfen","fee":"","wheelchair":"","openingHours":"","website":"","phone":"","access":"","electricity":"","source":"https://www.openstreetmap.org/way/51878554","rawName":"Giljastøl","phones":[]}},{"type":"Feature","geometry":{"type":"Point","coordinates":[6.3262682,58.5399119]},"properties":{"id":106,"name":"Legå camping","type":"motorhome","label":"Wohnmobilstellplatz","place":"Lund","road":"Legåveien","quality":48,"qualityLabel":"Vor Ort prüfen","fee":"","wheelchair":"","openingHours":"","website":"","phone":"","access":"","electricity":"","source":"https://www.openstreetmap.org/way/60081650","rawName":"Legå camping","phones":[]}},{"type":"Feature","geometry":{"type":"Point","coordinates":[6.7171589,58.283544]},"properties":{"id":107,"name":"Egenes camping drift as","type":"motorhome","label":"Wohnmobilstellplatz","place":"Flekkefjord","road":"Selandsvegen","quality":48,"qualityLabel":"Vor Ort prüfen","fee":"","wheelchair":"","openingHours":"","website":"","phone":"","access":"","electricity":"","source":"https://www.openstreetmap.org/node/12994757901","rawName":"Egenes camping drift as","phones":[]}},{"type":"Feature","geometry":{"type":"Point","coordinates":[5.7356733,58.8461908]},"properties":{"id":108,"name":"Sandnes bobilparkering","type":"motorhome","label":"Wohnmobilstellplatz","place":"Sandnes","road":"Hoveveien","quality":48,"qualityLabel":"Vor Ort prüfen","fee":"","wheelchair":"","openingHours":"","website":"","phone":"","access":"","electricity":"","source":"https://www.openstreetmap.org/node/6815187497","rawName":"Sandnes bobilparkering","phones":[]}},{"type":"Feature","geometry":{"type":"Point","coordinates":[10.7481831,59.2703345]},"properties":{"id":109,"name":"Lervik Camping","type":"motorhome","label":"Wohnmobilstellplatz","place":"Fredrikstad","road":"Lervikveien","quality":48,"qualityLabel":"Vor Ort prüfen","fee":"","wheelchair":"","openingHours":"","website":"","phone":"","access":"","electricity":"","source":"https://www.openstreetmap.org/way/25792457","rawName":"Lervik Camping","phones":[]}},{"type":"Feature","geometry":{"type":"Point","coordinates":[8.7102644,58.4584154]},"properties":{"id":110,"name":"Wohnmobilstellplatz · Sørsvannsveien, Arendal","type":"motorhome","label":"Wohnmobilstellplatz","place":"Arendal","road":"Sørsvannsveien","quality":48,"qualityLabel":"Vor Ort prüfen","fee":"","wheelchair":"","openingHours":"","website":"","phone":"","access":"","electricity":"","source":"https://www.openstreetmap.org/node/5909209486","rawName":"Wohnwagenstellplatz","phones":[]}},{"type":"Feature","geometry":{"type":"Point","coordinates":[10.2555638,59.0686795]},"properties":{"id":111,"name":"Kværnstua","type":"motorhome","label":"Wohnmobilstellplatz","place":"Sandefjord","road":"Søndre Vøra","quality":48,"qualityLabel":"Vor Ort prüfen","fee":"","wheelchair":"","openingHours":"","website":"","phone":"","access":"","electricity":"","source":"https://www.openstreetmap.org/node/4226129090","rawName":"Kværnstua","phones":[]}},{"type":"Feature","geometry":{"type":"Point","coordinates":[10.7263878,59.3157372]},"properties":{"id":112,"name":"Huseby Camping","type":"motorhome","label":"Wohnmobilstellplatz","place":"Råde","road":"Hestholmen","quality":48,"qualityLabel":"Vor Ort prüfen","fee":"","wheelchair":"","openingHours":"","website":"","phone":"","access":"","electricity":"","source":"https://www.openstreetmap.org/way/697717723","rawName":"Huseby Camping","phones":[]}},{"type":"Feature","geometry":{"type":"Point","coordinates":[10.7284876,59.3113357]},"properties":{"id":113,"name":"Hestholmen Camping","type":"motorhome","label":"Wohnmobilstellplatz","place":"Råde","road":"Ovenneset","quality":48,"qualityLabel":"Vor Ort prüfen","fee":"","wheelchair":"","openingHours":"","website":"","phone":"","access":"","electricity":"","source":"https://www.openstreetmap.org/way/697717724","rawName":"Hestholmen Camping","phones":[]}},{"type":"Feature","geometry":{"type":"Point","coordinates":[10.6863711,59.3090463]},"properties":{"id":114,"name":"Larkollen camping","type":"motorhome","label":"Wohnmobilstellplatz","place":"Moss","road":"Nesetveien","quality":48,"qualityLabel":"Vor Ort prüfen","fee":"","wheelchair":"","openingHours":"","website":"","phone":"","access":"","electricity":"","source":"https://www.openstreetmap.org/way/25523877","rawName":"Larkollen camping","phones":[]}},{"type":"Feature","geometry":{"type":"Point","coordinates":[10.652888,59.3905167]},"properties":{"id":115,"name":"Fuglevik camping","type":"motorhome","label":"Wohnmobilstellplatz","place":"Moss","road":"Hjørnestien","quality":48,"qualityLabel":"Vor Ort prüfen","fee":"","wheelchair":"","openingHours":"","website":"","phone":"","access":"","electricity":"","source":"https://www.openstreetmap.org/way/20135091","rawName":"Fuglevik camping","phones":[]}},{"type":"Feature","geometry":{"type":"Point","coordinates":[10.0305654,58.9850196]},"properties":{"id":116,"name":"Solplassen camping","type":"motorhome","label":"Wohnmobilstellplatz","place":"Larvik","road":"Rakkeveien","quality":48,"qualityLabel":"Vor Ort prüfen","fee":"","wheelchair":"","openingHours":"","website":"","phone":"","access":"","electricity":"","source":"https://www.openstreetmap.org/node/3313262261","rawName":"Solplassen camping","phones":[]}},{"type":"Feature","geometry":{"type":"Point","coordinates":[9.7118535,59.1112891]},"properties":{"id":117,"name":"Olavsberget","type":"motorhome","label":"Wohnmobilstellplatz","place":"Porsgrunn","road":"Nystrandvegen","quality":48,"qualityLabel":"Vor Ort prüfen","fee":"","wheelchair":"","openingHours":"","website":"","phone":"","access":"","electricity":"","source":"https://www.openstreetmap.org/node/1463006233","rawName":"Olavsberget","phones":[]}},{"type":"Feature","geometry":{"type":"Point","coordinates":[9.9758057,58.9858829]},"properties":{"id":118,"name":"Stretere Camping","type":"motorhome","label":"Wohnmobilstellplatz","place":"Larvik","road":"Kyststien","quality":48,"qualityLabel":"Vor Ort prüfen","fee":"","wheelchair":"","openingHours":"","website":"","phone":"","access":"","electricity":"","source":"https://www.openstreetmap.org/node/1404491039","rawName":"Stretere Camping","phones":[]}},{"type":"Feature","geometry":{"type":"Point","coordinates":[9.9697117,58.985905]},"properties":{"id":119,"name":"Kolbensrød Camping","type":"motorhome","label":"Wohnmobilstellplatz","place":"Larvik","road":"Kolbensrødveien","quality":48,"qualityLabel":"Vor Ort prüfen","fee":"","wheelchair":"","openingHours":"","website":"","phone":"","access":"","electricity":"","source":"https://www.openstreetmap.org/node/1404491139","rawName":"Kolbensrød Camping","phones":[]}},{"type":"Feature","geometry":{"type":"Point","coordinates":[6.5526917,60.0650828]},"properties":{"id":120,"name":"Lothepus camping","type":"motorhome","label":"Wohnmobilstellplatz","place":"Ullensvang","road":"Hjøllovegen","quality":48,"qualityLabel":"Vor Ort prüfen","fee":"","wheelchair":"","openingHours":"","website":"","phone":"","access":"","electricity":"","source":"https://www.openstreetmap.org/relation/5286241","rawName":"Lothepus camping","phones":[]}},{"type":"Feature","geometry":{"type":"Point","coordinates":[6.5484782,60.0714839]},"properties":{"id":121,"name":"Camp Lothepus Bobilcamp","type":"motorhome","label":"Wohnmobilstellplatz","place":"Ullensvang","road":"Almerket","quality":48,"qualityLabel":"Vor Ort prüfen","fee":"","wheelchair":"","openingHours":"","website":"","phone":"","access":"","electricity":"yes","source":"https://www.openstreetmap.org/node/4747404783","rawName":"Camp Lothepus Bobilcamp","phones":[]}},{"type":"Feature","geometry":{"type":"Point","coordinates":[5.235556,59.74189]},"properties":{"id":122,"name":"Kulleseidkanalen","type":"motorhome","label":"Wohnmobilstellplatz","place":"Bømlo","road":"Kanalvegen","quality":48,"qualityLabel":"Vor Ort prüfen","fee":"","wheelchair":"","openingHours":"","website":"","phone":"","access":"","electricity":"","source":"https://www.openstreetmap.org/node/8416023617","rawName":"Kulleseidkanalen","phones":[]}},{"type":"Feature","geometry":{"type":"Point","coordinates":[8.1276046,59.7201437]},"properties":{"id":123,"name":"Hagen Vintercaravan","type":"motorhome","label":"Wohnmobilstellplatz","place":"Vinje","road":"Holtarvegen","quality":48,"qualityLabel":"Vor Ort prüfen","fee":"","wheelchair":"","openingHours":"","website":"","phone":"","access":"","electricity":"","source":"https://www.openstreetmap.org/way/188678731","rawName":"Hagen Vintercaravan","phones":[]}},{"type":"Feature","geometry":{"type":"Point","coordinates":[5.5194207,60.8972752]},"properties":{"id":124,"name":"Joker","type":"motorhome","label":"Wohnmobilstellplatz","place":"Masfjorden","road":"Sognevegen","quality":48,"qualityLabel":"Vor Ort prüfen","fee":"","wheelchair":"","openingHours":"","website":"","phone":"","access":"","electricity":"","source":"https://www.openstreetmap.org/node/8414761617","rawName":"Joker","phones":[]}},{"type":"Feature","geometry":{"type":"Point","coordinates":[5.1704441,60.8429152]},"properties":{"id":125,"name":"Nautesund","type":"motorhome","label":"Wohnmobilstellplatz","place":"Masfjorden","road":"Fensfjordvegen","quality":48,"qualityLabel":"Vor Ort prüfen","fee":"","wheelchair":"","openingHours":"","website":"","phone":"","access":"","electricity":"","source":"https://www.openstreetmap.org/node/973567430","rawName":"Nautesund","phones":[]}},{"type":"Feature","geometry":{"type":"Point","coordinates":[6.1128828,59.7456542]},"properties":{"id":126,"name":"Kyrping Camping","type":"motorhome","label":"Wohnmobilstellplatz","place":"Etne","road":"Sævareidsvik","quality":48,"qualityLabel":"Vor Ort prüfen","fee":"","wheelchair":"","openingHours":"","website":"","phone":"","access":"","electricity":"","source":"https://www.openstreetmap.org/node/1369285840","rawName":"Kyrping Camping","phones":[]}},{"type":"Feature","geometry":{"type":"Point","coordinates":[5.315597,59.918357]},"properties":{"id":127,"name":"Fitjar","type":"motorhome","label":"Wohnmobilstellplatz","place":"Fitjar","road":"Fitjarsjøen","quality":48,"qualityLabel":"Vor Ort prüfen","fee":"","wheelchair":"","openingHours":"","website":"","phone":"","access":"","electricity":"","source":"https://www.openstreetmap.org/node/8414543417","rawName":"Fitjar","phones":[]}},{"type":"Feature","geometry":{"type":"Point","coordinates":[4.995054,60.750253]},"properties":{"id":128,"name":"Åvika","type":"motorhome","label":"Wohnmobilstellplatz","place":"Austrheim","road":"Njøtevegen","quality":48,"qualityLabel":"Vor Ort prüfen","fee":"","wheelchair":"","openingHours":"","website":"","phone":"","access":"","electricity":"","source":"https://www.openstreetmap.org/node/8414328127","rawName":"Åvika","phones":[]}},{"type":"Feature","geometry":{"type":"Point","coordinates":[6.2048632,60.2352284]},"properties":{"id":129,"name":"Hardanger Bobilparkering","type":"motorhome","label":"Wohnmobilstellplatz","place":"Ullensvang","road":"Stølheimsvegen","quality":48,"qualityLabel":"Vor Ort prüfen","fee":"","wheelchair":"","openingHours":"","website":"","phone":"","access":"","electricity":"","source":"https://www.openstreetmap.org/node/13408080503","rawName":"Hardanger Bobilparkering","phones":[]}},{"type":"Feature","geometry":{"type":"Point","coordinates":[9.4467992,59.7392652]},"properties":{"id":130,"name":"Storli","type":"motorhome","label":"Wohnmobilstellplatz","place":"Kongsberg","road":"Storliveien","quality":48,"qualityLabel":"Vor Ort prüfen","fee":"","wheelchair":"","openingHours":"","website":"","phone":"","access":"","electricity":"","source":"https://www.openstreetmap.org/node/4451447266","rawName":"Storli","phones":[]}},{"type":"Feature","geometry":{"type":"Point","coordinates":[10.29329,60.147982]},"properties":{"id":131,"name":"Stall Lisletta","type":"motorhome","label":"Wohnmobilstellplatz","place":"Ringerike","road":"Hadelandsveien","quality":48,"qualityLabel":"Vor Ort prüfen","fee":"","wheelchair":"","openingHours":"","website":"","phone":"","access":"","electricity":"","source":"https://www.openstreetmap.org/node/8414795817","rawName":"Stall Lisletta","phones":[]}},{"type":"Feature","geometry":{"type":"Point","coordinates":[10.6410174,60.4490414]},"properties":{"id":132,"name":"Lygna Camp","type":"motorhome","label":"Wohnmobilstellplatz","place":"Gran","road":"Torvmyrvegen","quality":48,"qualityLabel":"Vor Ort prüfen","fee":"","wheelchair":"","openingHours":"","website":"","phone":"","access":"","electricity":"","source":"https://www.openstreetmap.org/node/2232705536","rawName":"Lygna Camp","phones":[]}},{"type":"Feature","geometry":{"type":"Point","coordinates":[9.414687,59.7907378]},"properties":{"id":133,"name":"Blestua","type":"motorhome","label":"Wohnmobilstellplatz","place":"Flesberg","road":"Blestuevegen","quality":48,"qualityLabel":"Vor Ort prüfen","fee":"","wheelchair":"","openingHours":"","website":"","phone":"","access":"","electricity":"","source":"https://www.openstreetmap.org/way/444564638","rawName":"Blestua","phones":[]}},{"type":"Feature","geometry":{"type":"Point","coordinates":[10.6404361,59.4825668]},"properties":{"id":134,"name":"Nes camping","type":"motorhome","label":"Wohnmobilstellplatz","place":"Moss","road":"Nesveien","quality":48,"qualityLabel":"Vor Ort prüfen","fee":"","wheelchair":"","openingHours":"","website":"","phone":"","access":"","electricity":"","source":"https://www.openstreetmap.org/way/19882246","rawName":"Nes camping","phones":[]}},{"type":"Feature","geometry":{"type":"Point","coordinates":[11.3254733,59.5513665]},"properties":{"id":135,"name":"Mysen bobilparkering","type":"motorhome","label":"Wohnmobilstellplatz","place":"Indre Østfold","road":"Jernbanegata","quality":48,"qualityLabel":"Vor Ort prüfen","fee":"","wheelchair":"","openingHours":"","website":"","phone":"","access":"","electricity":"","source":"https://www.openstreetmap.org/way/772126728","rawName":"Mysen bobilparkering","phones":[]}},{"type":"Feature","geometry":{"type":"Point","coordinates":[12.4016678,60.4177208]},"properties":{"id":136,"name":"Finnskogen kro og motell","type":"motorhome","label":"Wohnmobilstellplatz","place":"Grue","road":"Finnskogvegen","quality":48,"qualityLabel":"Vor Ort prüfen","fee":"","wheelchair":"","openingHours":"","website":"","phone":"","access":"","electricity":"","source":"https://www.openstreetmap.org/node/1709333663","rawName":"Finnskogen kro og motell","phones":[]}},{"type":"Feature","geometry":{"type":"Point","coordinates":[11.3875364,60.8559809]},"properties":{"id":137,"name":"Villmarksporten","type":"motorhome","label":"Wohnmobilstellplatz","place":"Løten","road":"Chausseen","quality":48,"qualityLabel":"Vor Ort prüfen","fee":"","wheelchair":"","openingHours":"","website":"","phone":"","access":"","electricity":"","source":"https://www.openstreetmap.org/way/67182410","rawName":"Villmarksporten","phones":[]}},{"type":"Feature","geometry":{"type":"Point","coordinates":[6.8018371,61.8354216]},"properties":{"id":138,"name":"Olden Fjordcamping","type":"motorhome","label":"Wohnmobilstellplatz","place":"Stryn","road":"Fjordvegen","quality":48,"qualityLabel":"Vor Ort prüfen","fee":"","wheelchair":"","openingHours":"","website":"","phone":"","access":"","electricity":"","source":"https://www.openstreetmap.org/way/1295016783","rawName":"Olden Fjordcamping","phones":[]}},{"type":"Feature","geometry":{"type":"Point","coordinates":[5.1130441,61.9324116]},"properties":{"id":139,"name":"Måløy A","type":"motorhome","label":"Wohnmobilstellplatz","place":"Kinn","road":"Amtskaia","quality":48,"qualityLabel":"Vor Ort prüfen","fee":"","wheelchair":"","openingHours":"","website":"","phone":"","access":"","electricity":"yes","source":"https://www.openstreetmap.org/node/11613578448","rawName":"Måløy A","phones":[]}},{"type":"Feature","geometry":{"type":"Point","coordinates":[5.3562059,62.0412518]},"properties":{"id":140,"name":"Selje Camping","type":"motorhome","label":"Wohnmobilstellplatz","place":"Stad","road":"Seljetunvegen","quality":48,"qualityLabel":"Vor Ort prüfen","fee":"","wheelchair":"","openingHours":"","website":"","phone":"","access":"","electricity":"","source":"https://www.openstreetmap.org/node/1693367502","rawName":"Selje Camping","phones":[]}},{"type":"Feature","geometry":{"type":"Point","coordinates":[5.2838176,61.9817339]},"properties":{"id":141,"name":"Skottneset Feriesenter","type":"motorhome","label":"Wohnmobilstellplatz","place":"Stad","road":"Seljevegen","quality":48,"qualityLabel":"Vor Ort prüfen","fee":"","wheelchair":"","openingHours":"","website":"","phone":"","access":"","electricity":"","source":"https://www.openstreetmap.org/node/5775632554","rawName":"Skottneset Feriesenter","phones":[]}},{"type":"Feature","geometry":{"type":"Point","coordinates":[10.0924063,61.6491906]},"properties":{"id":142,"name":"Lundecamp","type":"motorhome","label":"Wohnmobilstellplatz","place":"Ringebu","road":"Rondevegen","quality":48,"qualityLabel":"Vor Ort prüfen","fee":"","wheelchair":"","openingHours":"","website":"","phone":"","access":"","electricity":"","source":"https://www.openstreetmap.org/node/1430253210","rawName":"Lundecamp","phones":[]}},{"type":"Feature","geometry":{"type":"Point","coordinates":[8.9887999,60.9972481]},"properties":{"id":143,"name":"Vaset Camping","type":"motorhome","label":"Wohnmobilstellplatz","place":"Vestre Slidre","road":"Soltjednvegen","quality":48,"qualityLabel":"Vor Ort prüfen","fee":"","wheelchair":"","openingHours":"","website":"","phone":"","access":"","electricity":"","source":"https://www.openstreetmap.org/node/1827725359","rawName":"Vaset Camping","phones":[]}},{"type":"Feature","geometry":{"type":"Point","coordinates":[9.4902552,61.888033]},"properties":{"id":144,"name":"Rondane Haukliseter Fjellhotell","type":"motorhome","label":"Wohnmobilstellplatz","place":"Sel","road":"Smuksjøsetervegen","quality":48,"qualityLabel":"Vor Ort prüfen","fee":"","wheelchair":"","openingHours":"","website":"","phone":"","access":"","electricity":"","source":"https://www.openstreetmap.org/node/8414900717","rawName":"Rondane Haukliseter Fjellhotell","phones":[]}},{"type":"Feature","geometry":{"type":"Point","coordinates":[9.2067725,62.0939447]},"properties":{"id":145,"name":"Wohnmobilstellplatz · Hjellesætervegen, Dovre","type":"motorhome","label":"Wohnmobilstellplatz","place":"Dovre","road":"Hjellesætervegen","quality":48,"qualityLabel":"Vor Ort prüfen","fee":"","wheelchair":"","openingHours":"","website":"","phone":"","access":"","electricity":"","source":"https://www.openstreetmap.org/node/5909209385","rawName":"Wohnwagenstellplatz","phones":[]}},{"type":"Feature","geometry":{"type":"Point","coordinates":[6.2012248,62.4458492]},"properties":{"id":146,"name":"Bobilpark Fyllingsjoen","type":"motorhome","label":"Wohnmobilstellplatz","place":"Sula","road":"Fyllingsjøen","quality":48,"qualityLabel":"Vor Ort prüfen","fee":"","wheelchair":"","openingHours":"","website":"","phone":"","access":"","electricity":"","source":"https://www.openstreetmap.org/node/11572405755","rawName":"Bobilpark Fyllingsjoen","phones":[]}},{"type":"Feature","geometry":{"type":"Point","coordinates":[6.0219381,62.4692622]},"properties":{"id":147,"name":"Godøy Småbåthavn","type":"motorhome","label":"Wohnmobilstellplatz","place":"Giske","road":"Godøyvegen","quality":48,"qualityLabel":"Vor Ort prüfen","fee":"","wheelchair":"","openingHours":"","website":"","phone":"","access":"","electricity":"","source":"https://www.openstreetmap.org/node/8423244118","rawName":"Godøy Småbåthavn","phones":[]}},{"type":"Feature","geometry":{"type":"Point","coordinates":[11.379191,62.5717087]},"properties":{"id":148,"name":"Røros bobil camping","type":"motorhome","label":"Wohnmobilstellplatz","place":"Røros","road":"Yter Øya","quality":48,"qualityLabel":"Vor Ort prüfen","fee":"","wheelchair":"","openingHours":"","website":"","phone":"","access":"","electricity":"","source":"https://www.openstreetmap.org/node/7844035785","rawName":"Røros bobil camping","phones":[]}},{"type":"Feature","geometry":{"type":"Point","coordinates":[10.779216,63.4920869]},"properties":{"id":149,"name":"Vinge","type":"motorhome","label":"Wohnmobilstellplatz","place":"Stjørdal","road":"Velvangsvegen","quality":48,"qualityLabel":"Vor Ort prüfen","fee":"","wheelchair":"","openingHours":"","website":"","phone":"","access":"","electricity":"","source":"https://www.openstreetmap.org/node/1482309414","rawName":"Vinge","phones":[]}},{"type":"Feature","geometry":{"type":"Point","coordinates":[8.7927846,62.9816215]},"properties":{"id":150,"name":"Krangnes camping","type":"motorhome","label":"Wohnmobilstellplatz","place":"Surnadal","road":"Nordsida","quality":48,"qualityLabel":"Vor Ort prüfen","fee":"","wheelchair":"","openingHours":"","website":"","phone":"","access":"","electricity":"","source":"https://www.openstreetmap.org/way/232391259","rawName":"Krangnes camping","phones":[]}},{"type":"Feature","geometry":{"type":"Point","coordinates":[8.7211883,62.9785991]},"properties":{"id":151,"name":"Brekkøya camping","type":"motorhome","label":"Wohnmobilstellplatz","place":"Surnadal","road":"Høgskulebakkan","quality":48,"qualityLabel":"Vor Ort prüfen","fee":"","wheelchair":"","openingHours":"","website":"","phone":"","access":"","electricity":"","source":"https://www.openstreetmap.org/node/258827258","rawName":"Brekkøya camping","phones":[]}},{"type":"Feature","geometry":{"type":"Point","coordinates":[8.3795723,63.0170887]},"properties":{"id":152,"name":"Bøfjorden camping","type":"motorhome","label":"Wohnmobilstellplatz","place":"Surnadal","road":"Bølandsvegen","quality":48,"qualityLabel":"Vor Ort prüfen","fee":"","wheelchair":"","openingHours":"","website":"","phone":"","access":"","electricity":"","source":"https://www.openstreetmap.org/node/1231081366","rawName":"Bøfjorden camping","phones":[]}},{"type":"Feature","geometry":{"type":"Point","coordinates":[8.5525924,62.6728124]},"properties":{"id":153,"name":"Wohnmobilstellplatz · Romsdalsvegen","type":"motorhome","label":"Wohnmobilstellplatz","place":"Sunndal","road":"Romsdalsvegen","quality":48,"qualityLabel":"Vor Ort prüfen","fee":"","wheelchair":"","openingHours":"","website":"https://www.sunndal.kommune.no/tjenester/veg-vann-og-avlop/vegarbeid-og-vedlikehold/parkering/bobilparkering/","phone":"","access":"","electricity":"","source":"https://www.openstreetmap.org/way/772978962","rawName":"Wohnmobilstellplatz · Romsdalsvegen","phones":[]}},{"type":"Feature","geometry":{"type":"Point","coordinates":[9.7030782,62.8267127]},"properties":{"id":154,"name":"Granasjøen","type":"motorhome","label":"Wohnmobilstellplatz","place":"Rennebu","road":"Nerskogsveien","quality":48,"qualityLabel":"Vor Ort prüfen","fee":"","wheelchair":"","openingHours":"","website":"","phone":"","access":"","electricity":"","source":"https://www.openstreetmap.org/node/942875719","rawName":"Granasjøen","phones":[]}},{"type":"Feature","geometry":{"type":"Point","coordinates":[11.1909855,63.9131199]},"properties":{"id":155,"name":"Kjerknesvågen Bobilplass","type":"motorhome","label":"Wohnmobilstellplatz","place":"Inderøy","road":"Vågavegen","quality":48,"qualityLabel":"Vor Ort prüfen","fee":"","wheelchair":"","openingHours":"","website":"","phone":"","access":"","electricity":"","source":"https://www.openstreetmap.org/node/13033575601","rawName":"Kjerknesvågen Bobilplass","phones":[]}},{"type":"Feature","geometry":{"type":"Point","coordinates":[16.0674739,67.0991806]},"properties":{"id":156,"name":"Sulitjelma Turistsenter","type":"motorhome","label":"Wohnmobilstellplatz","place":"Fauske","road":"Stordalveien","quality":48,"qualityLabel":"Vor Ort prüfen","fee":"","wheelchair":"","openingHours":"","website":"","phone":"","access":"","electricity":"","source":"https://www.openstreetmap.org/node/1433033552","rawName":"Sulitjelma Turistsenter","phones":[]}},{"type":"Feature","geometry":{"type":"Point","coordinates":[15.0080716,67.9705021]},"properties":{"id":157,"name":"Gresssletta","type":"motorhome","label":"Wohnmobilstellplatz","place":"Steigen","road":"Bøsjyveien","quality":48,"qualityLabel":"Vor Ort prüfen","fee":"","wheelchair":"","openingHours":"","website":"","phone":"","access":"","electricity":"","source":"https://www.openstreetmap.org/way/1013332146","rawName":"Gresssletta","phones":[]}},{"type":"Feature","geometry":{"type":"Point","coordinates":[13.7018287,66.0540907]},"properties":{"id":158,"name":"Korgenfjellet Fjellstue","type":"motorhome","label":"Wohnmobilstellplatz","place":"Hemnes","road":"Korgfjellveien","quality":48,"qualityLabel":"Vor Ort prüfen","fee":"","wheelchair":"","openingHours":"","website":"","phone":"","access":"","electricity":"","source":"https://www.openstreetmap.org/node/10048581355","rawName":"Korgenfjellet Fjellstue","phones":[]}},{"type":"Feature","geometry":{"type":"Point","coordinates":[13.1660092,66.4671071]},"properties":{"id":159,"name":"Kvina bobilparkering","type":"motorhome","label":"Wohnmobilstellplatz","place":"Lurøy","road":"Tonnesveien","quality":48,"qualityLabel":"Vor Ort prüfen","fee":"","wheelchair":"","openingHours":"","website":"","phone":"","access":"","electricity":"","source":"https://www.openstreetmap.org/node/12072962083","rawName":"Kvina bobilparkering","phones":[]}},{"type":"Feature","geometry":{"type":"Point","coordinates":[13.3773187,66.2151222]},"properties":{"id":160,"name":"Bardal Camping","type":"motorhome","label":"Wohnmobilstellplatz","place":"Leirfjord","road":"Remmaveien","quality":48,"qualityLabel":"Vor Ort prüfen","fee":"","wheelchair":"","openingHours":"","website":"","phone":"","access":"","electricity":"","source":"https://www.openstreetmap.org/node/3412222293","rawName":"Bardal Camping","phones":[]}},{"type":"Feature","geometry":{"type":"Point","coordinates":[13.1377719,67.9464143]},"properties":{"id":161,"name":"Hannoy","type":"motorhome","label":"Wohnmobilstellplatz","place":"Hamnøya","road":"Moskenesveien","quality":48,"qualityLabel":"Vor Ort prüfen","fee":"","wheelchair":"","openingHours":"","website":"","phone":"","access":"","electricity":"","source":"https://www.openstreetmap.org/node/10989145205","rawName":"Hannoy","phones":[]}},{"type":"Feature","geometry":{"type":"Point","coordinates":[16.3972825,68.6569943]},"properties":{"id":162,"name":"Bjørnhågen camping","type":"motorhome","label":"Wohnmobilstellplatz","place":"Harstad","road":"Storjordveien","quality":48,"qualityLabel":"Vor Ort prüfen","fee":"","wheelchair":"","openingHours":"","website":"","phone":"","access":"","electricity":"","source":"https://www.openstreetmap.org/node/10031631397","rawName":"Bjørnhågen camping","phones":[]}},{"type":"Feature","geometry":{"type":"Point","coordinates":[13.534986,68.0773572]},"properties":{"id":163,"name":"Reineholmen bobilcamp","type":"motorhome","label":"Wohnmobilstellplatz","place":"Vestvågøy","road":"Ballstadlandet","quality":48,"qualityLabel":"Vor Ort prüfen","fee":"","wheelchair":"","openingHours":"","website":"","phone":"","access":"","electricity":"yes","source":"https://www.openstreetmap.org/way/1309457636","rawName":"Reineholmen bobilcamp","phones":[]}},{"type":"Feature","geometry":{"type":"Point","coordinates":[16.702559,68.458024]},"properties":{"id":164,"name":"Evenes Lofoten","type":"motorhome","label":"Wohnmobilstellplatz","place":"Evenes","road":"Nerveien","quality":48,"qualityLabel":"Vor Ort prüfen","fee":"","wheelchair":"","openingHours":"","website":"","phone":"","access":"","electricity":"","source":"https://www.openstreetmap.org/node/8426725717","rawName":"Evenes Lofoten","phones":[]}},{"type":"Feature","geometry":{"type":"Point","coordinates":[17.8394872,68.872946]},"properties":{"id":165,"name":"Strandparken","type":"motorhome","label":"Wohnmobilstellplatz","place":"Salangen","road":"Strandveien","quality":48,"qualityLabel":"Vor Ort prüfen","fee":"","wheelchair":"","openingHours":"","website":"","phone":"","access":"","electricity":"","source":"https://www.openstreetmap.org/way/1084195353","rawName":"Strandparken","phones":[]}},{"type":"Feature","geometry":{"type":"Point","coordinates":[17.7723799,68.8687265]},"properties":{"id":166,"name":"Garsnes camping","type":"motorhome","label":"Wohnmobilstellplatz","place":"Salangen","road":"Lavangsnesveien","quality":48,"qualityLabel":"Vor Ort prüfen","fee":"","wheelchair":"","openingHours":"","website":"","phone":"","access":"","electricity":"","source":"https://www.openstreetmap.org/way/1265502180","rawName":"Garsnes camping","phones":[]}},{"type":"Feature","geometry":{"type":"Point","coordinates":[29.6329005,69.9743532]},"properties":{"id":167,"name":"Elsa's caravan & galleri","type":"motorhome","label":"Wohnmobilstellplatz","place":"Sør-Varanger","road":"Sagveien","quality":48,"qualityLabel":"Vor Ort prüfen","fee":"","wheelchair":"","openingHours":"","website":"","phone":"","access":"","electricity":"","source":"https://www.openstreetmap.org/way/731618864","rawName":"Elsa's caravan & galleri","phones":[]}},{"type":"Feature","geometry":{"type":"Point","coordinates":[31.1031473,70.3733457]},"properties":{"id":168,"name":"Vardø Bobilplass","type":"motorhome","label":"Wohnmobilstellplatz","place":"Vardø","road":"Kaigata","quality":48,"qualityLabel":"Vor Ort prüfen","fee":"","wheelchair":"","openingHours":"","website":"","phone":"","access":"","electricity":"yes","source":"https://www.openstreetmap.org/node/12658266192","rawName":"Vardø Bobilplass","phones":[]}},{"type":"Feature","geometry":{"type":"Point","coordinates":[21.411427,69.864227]},"properties":{"id":169,"name":"Oksfjord Båtforening","type":"motorhome","label":"Wohnmobilstellplatz","place":"Nordreisa","road":"Øvergårdveien","quality":48,"qualityLabel":"Vor Ort prüfen","fee":"","wheelchair":"","openingHours":"","website":"","phone":"","access":"","electricity":"","source":"https://www.openstreetmap.org/node/8434354317","rawName":"Oksfjord Båtforening","phones":[]}},{"type":"Feature","geometry":{"type":"Point","coordinates":[27.8338291,71.0366875]},"properties":{"id":170,"name":"Adventure Camp Mehamn","type":"motorhome","label":"Wohnmobilstellplatz","place":"Gamvik","road":"Holmeveien","quality":48,"qualityLabel":"Vor Ort prüfen","fee":"","wheelchair":"","openingHours":"","website":"","phone":"","access":"","electricity":"","source":"https://www.openstreetmap.org/way/463239141","rawName":"Adventure Camp Mehamn","phones":[]}},{"type":"Feature","geometry":{"type":"Point","coordinates":[6.1897297,62.4405306]},"properties":{"id":171,"name":"Wohnmobilstellplatz · Molværsvegen","type":"motorhome","label":"Wohnmobilstellplatz","place":"Sula","road":"Molværsvegen","quality":47,"qualityLabel":"Vor Ort prüfen","fee":"yes","wheelchair":"","openingHours":"","website":"","phone":"+47 70 301111","access":"","electricity":"yes","source":"https://www.openstreetmap.org/node/10608628104","rawName":"Wohnmobilstellplatz · Molværsvegen","phones":["+47 70 301111"]}},{"type":"Feature","geometry":{"type":"Point","coordinates":[13.5398965,68.1924217]},"properties":{"id":172,"name":"Wohnmobilstellplatz · Voieveien","type":"motorhome","label":"Wohnmobilstellplatz","place":"Vestvågøy","road":"Voieveien","quality":47,"qualityLabel":"Vor Ort prüfen","fee":"yes","wheelchair":"","openingHours":"","website":"","phone":"+47 90694099","access":"","electricity":"","source":"https://www.openstreetmap.org/way/1421438411","rawName":"Wohnmobilstellplatz · Voieveien","phones":["+47 90694099"]}},{"type":"Feature","geometry":{"type":"Point","coordinates":[11.2622661,60.3269687]},"properties":{"id":173,"name":"Wohnmobilstellplatz · Eidsvollvegen","type":"motorhome","label":"Wohnmobilstellplatz","place":"Eidsvoll","road":"Eidsvollvegen","quality":46,"qualityLabel":"Vor Ort prüfen","fee":"no","wheelchair":"","openingHours":"","website":"","phone":"","access":"yes","electricity":"no","source":"https://www.openstreetmap.org/way/858004343","rawName":"Wohnmobilstellplatz · Eidsvollvegen","phones":[]}},{"type":"Feature","geometry":{"type":"Point","coordinates":[7.0731372,58.1378194]},"properties":{"id":174,"name":"Wohnmobilstellplatz · Batteriveien sør","type":"motorhome","label":"Wohnmobilstellplatz","place":"Lyngdal","road":"Batteriveien sør","quality":45,"qualityLabel":"Vor Ort prüfen","fee":"yes","wheelchair":"limited","openingHours":"","website":"","phone":"","access":"","electricity":"yes","source":"https://www.openstreetmap.org/way/1211532847","rawName":"Wohnmobilstellplatz · Batteriveien sør","phones":[]}},{"type":"Feature","geometry":{"type":"Point","coordinates":[8.4773563,58.7647461]},"properties":{"id":175,"name":"Amli Badestrand","type":"motorhome","label":"Wohnmobilstellplatz","place":"Åmli","road":"Engenes","quality":43,"qualityLabel":"Vor Ort prüfen","fee":"","wheelchair":"","openingHours":"","website":"","phone":"","access":"","electricity":"","source":"https://www.openstreetmap.org/node/11143001902","rawName":"Amli Badestrand","phones":[]}},{"type":"Feature","geometry":{"type":"Point","coordinates":[8.4934864,58.7365535]},"properties":{"id":176,"name":"Sigridnes Camping","type":"motorhome","label":"Wohnmobilstellplatz","place":"Åmli","road":"Sigridnes","quality":43,"qualityLabel":"Vor Ort prüfen","fee":"","wheelchair":"","openingHours":"","website":"","phone":"","access":"","electricity":"","source":"https://www.openstreetmap.org/node/1494516640","rawName":"Sigridnes Camping","phones":[]}},{"type":"Feature","geometry":{"type":"Point","coordinates":[9.908002,59.152872]},"properties":{"id":177,"name":"Roppestad","type":"motorhome","label":"Wohnmobilstellplatz","place":"Larvik","road":"Farrisveien","quality":43,"qualityLabel":"Vor Ort prüfen","fee":"","wheelchair":"","openingHours":"","website":"","phone":"","access":"","electricity":"","source":"https://www.openstreetmap.org/node/8416045117","rawName":"Roppestad","phones":[]}},{"type":"Feature","geometry":{"type":"Point","coordinates":[7.5614648,60.2871963]},"properties":{"id":178,"name":"Tinnhølen","type":"motorhome","label":"Wohnmobilstellplatz","place":"Eidfjord","road":"Tinnhølvegen","quality":43,"qualityLabel":"Vor Ort prüfen","fee":"","wheelchair":"","openingHours":"","website":"","phone":"","access":"","electricity":"","source":"https://www.openstreetmap.org/way/461100848","rawName":"Tinnhølen","phones":[]}},{"type":"Feature","geometry":{"type":"Point","coordinates":[8.294669,59.8124442]},"properties":{"id":179,"name":"Møsvatn","type":"motorhome","label":"Wohnmobilstellplatz","place":"Tinn","road":"Møsvatn skipark","quality":43,"qualityLabel":"Vor Ort prüfen","fee":"","wheelchair":"","openingHours":"","website":"","phone":"","access":"","electricity":"","source":"https://www.openstreetmap.org/relation/8546176","rawName":"Møsvatn","phones":[]}},{"type":"Feature","geometry":{"type":"Point","coordinates":[11.4768494,60.7891596]},"properties":{"id":180,"name":"Oset Camping","type":"motorhome","label":"Wohnmobilstellplatz","place":"Løten","road":"Rokosjøvegen","quality":43,"qualityLabel":"Vor Ort prüfen","fee":"","wheelchair":"","openingHours":"","website":"","phone":"","access":"","electricity":"","source":"https://www.openstreetmap.org/way/295404898","rawName":"Oset Camping","phones":[]}},{"type":"Feature","geometry":{"type":"Point","coordinates":[10.3146064,60.0640906]},"properties":{"id":181,"name":"Wohnmobilstellplatz · Åsaveien","type":"motorhome","label":"Wohnmobilstellplatz","place":"Hole","road":"Åsaveien","quality":43,"qualityLabel":"Vor Ort prüfen","fee":"","wheelchair":"","openingHours":"24/7","website":"","phone":"","access":"","electricity":"","source":"https://www.openstreetmap.org/node/13339004001","rawName":"Wohnmobilstellplatz · Åsaveien","phones":[]}},{"type":"Feature","geometry":{"type":"Point","coordinates":[7.6022268,61.4946263]},"properties":{"id":182,"name":"Bolstad","type":"motorhome","label":"Wohnmobilstellplatz","place":"Luster","road":"Mørkridsvegen","quality":43,"qualityLabel":"Vor Ort prüfen","fee":"","wheelchair":"","openingHours":"","website":"","phone":"","access":"","electricity":"","source":"https://www.openstreetmap.org/node/3684010469","rawName":"Bolstad","phones":[]}},{"type":"Feature","geometry":{"type":"Point","coordinates":[6.1316837,61.1081097]},"properties":{"id":183,"name":"Ortnevik Grendehus","type":"motorhome","label":"Wohnmobilstellplatz","place":"Høyanger","road":"Ortnevik","quality":43,"qualityLabel":"Vor Ort prüfen","fee":"","wheelchair":"","openingHours":"","website":"","phone":"","access":"","electricity":"","source":"https://www.openstreetmap.org/node/9883621587","rawName":"Ortnevik Grendehus","phones":[]}},{"type":"Feature","geometry":{"type":"Point","coordinates":[10.1341598,62.2846926]},"properties":{"id":184,"name":"Gammelsetervangen","type":"motorhome","label":"Wohnmobilstellplatz","place":"Folldal","road":"Einunndalsvegen","quality":43,"qualityLabel":"Vor Ort prüfen","fee":"","wheelchair":"","openingHours":"","website":"","phone":"","access":"","electricity":"","source":"https://www.openstreetmap.org/node/3686091537","rawName":"Gammelsetervangen","phones":[]}},{"type":"Feature","geometry":{"type":"Point","coordinates":[7.1383783,62.6109929]},"properties":{"id":185,"name":"Wohnmobilstellplatz · Sagvegen","type":"motorhome","label":"Wohnmobilstellplatz","place":"Vestnes","road":"Sagvegen","quality":43,"qualityLabel":"Vor Ort prüfen","fee":"","wheelchair":"","openingHours":"24/7","website":"","phone":"","access":"","electricity":"","source":"https://www.openstreetmap.org/node/11099291605","rawName":"Wohnmobilstellplatz · Sagvegen","phones":[]}},{"type":"Feature","geometry":{"type":"Point","coordinates":[9.639414,62.3796051]},"properties":{"id":186,"name":"Dovrevegen","type":"motorhome","label":"Wohnmobilstellplatz","place":"Oppdal","road":"Dovrevegen","quality":43,"qualityLabel":"Vor Ort prüfen","fee":"","wheelchair":"","openingHours":"","website":"","phone":"","access":"","electricity":"no","source":"https://www.openstreetmap.org/node/13165132718","rawName":"Dovrevegen","phones":[]}},{"type":"Feature","geometry":{"type":"Point","coordinates":[12.3651372,65.6130515]},"properties":{"id":187,"name":"Steinmo bobilparkering","type":"motorhome","label":"Wohnmobilstellplatz","place":"Vevelstad","road":"Forvikveien","quality":43,"qualityLabel":"Vor Ort prüfen","fee":"","wheelchair":"","openingHours":"","website":"","phone":"","access":"","electricity":"","source":"https://www.openstreetmap.org/way/235854885","rawName":"Steinmo bobilparkering","phones":[]}},{"type":"Feature","geometry":{"type":"Point","coordinates":[11.4822994,64.4673433]},"properties":{"id":188,"name":"Wohnmobilstellplatz · Fjordvegen","type":"motorhome","label":"Wohnmobilstellplatz","place":"Namsos","road":"Fjordvegen","quality":43,"qualityLabel":"Vor Ort prüfen","fee":"","wheelchair":"","openingHours":"24/7","website":"","phone":"","access":"","electricity":"","source":"https://www.openstreetmap.org/node/13240981301","rawName":"Wohnmobilstellplatz · Fjordvegen","phones":[]}},{"type":"Feature","geometry":{"type":"Point","coordinates":[10.5157346,64.0958852]},"properties":{"id":189,"name":"Momyra camping","type":"motorhome","label":"Wohnmobilstellplatz","place":"Åfjord","road":"Norddalsveien","quality":43,"qualityLabel":"Vor Ort prüfen","fee":"","wheelchair":"","openingHours":"","website":"","phone":"","access":"","electricity":"","source":"https://www.openstreetmap.org/node/10063074636","rawName":"Momyra camping","phones":[]}},{"type":"Feature","geometry":{"type":"Point","coordinates":[11.225561,64.8584257]},"properties":{"id":190,"name":"Wohnmobilstellplatz · Nyvegen","type":"motorhome","label":"Wohnmobilstellplatz","place":"Nærøysund","road":"Nyvegen","quality":43,"qualityLabel":"Vor Ort prüfen","fee":"","wheelchair":"","openingHours":"24/7","website":"","phone":"","access":"","electricity":"yes","source":"https://www.openstreetmap.org/node/13235201601","rawName":"Wohnmobilstellplatz · Nyvegen","phones":[]}},{"type":"Feature","geometry":{"type":"Point","coordinates":[13.7204348,64.4463075]},"properties":{"id":191,"name":"Lierne gjestegård","type":"motorhome","label":"Wohnmobilstellplatz","place":"Lierne","road":"Sandsjøveien","quality":43,"qualityLabel":"Vor Ort prüfen","fee":"","wheelchair":"","openingHours":"","website":"","phone":"","access":"","electricity":"","source":"https://www.openstreetmap.org/node/458970568","rawName":"Lierne gjestegård","phones":[]}},{"type":"Feature","geometry":{"type":"Point","coordinates":[17.3933161,68.5216424]},"properties":{"id":192,"name":"Trollhøgda Caravan","type":"motorhome","label":"Wohnmobilstellplatz","place":"Narvik","road":"E 10","quality":43,"qualityLabel":"Vor Ort prüfen","fee":"","wheelchair":"","openingHours":"","website":"","phone":"","access":"","electricity":"","source":"https://www.openstreetmap.org/way/144583510","rawName":"Trollhøgda Caravan","phones":[]}},{"type":"Feature","geometry":{"type":"Point","coordinates":[17.2629551,68.5900424]},"properties":{"id":193,"name":"Annamo Camping","type":"motorhome","label":"Wohnmobilstellplatz","place":"Tjeldsund","road":"Grovfjordveien","quality":43,"qualityLabel":"Vor Ort prüfen","fee":"","wheelchair":"","openingHours":"","website":"","phone":"","access":"","electricity":"","source":"https://www.openstreetmap.org/node/1311807544","rawName":"Annamo Camping","phones":[]}},{"type":"Feature","geometry":{"type":"Point","coordinates":[18.7031301,69.0726769]},"properties":{"id":194,"name":"Målselv Fjellandsby","type":"motorhome","label":"Wohnmobilstellplatz","place":"Målselv","road":"Myrefjellveien","quality":43,"qualityLabel":"Vor Ort prüfen","fee":"","wheelchair":"","openingHours":"","website":"","phone":"","access":"","electricity":"","source":"https://www.openstreetmap.org/way/372976231","rawName":"Målselv Fjellandsby","phones":[]}},{"type":"Feature","geometry":{"type":"Point","coordinates":[18.8789438,68.6563065]},"properties":{"id":195,"name":"Slåttemoen","type":"motorhome","label":"Wohnmobilstellplatz","place":"Bardu","road":"8470","quality":43,"qualityLabel":"Vor Ort prüfen","fee":"","wheelchair":"","openingHours":"","website":"","phone":"","access":"","electricity":"","source":"https://www.openstreetmap.org/way/259481576","rawName":"Slåttemoen","phones":[]}},{"type":"Feature","geometry":{"type":"Point","coordinates":[29.3735026,69.8727591]},"properties":{"id":196,"name":"Böygefjord","type":"motorhome","label":"Wohnmobilstellplatz","place":"Sør-Varanger","road":"Karisariveien","quality":43,"qualityLabel":"Vor Ort prüfen","fee":"","wheelchair":"","openingHours":"","website":"","phone":"","access":"","electricity":"","source":"https://www.openstreetmap.org/node/5838242685","rawName":"Böygefjord","phones":[]}},{"type":"Feature","geometry":{"type":"Point","coordinates":[23.4008341,70.2247717]},"properties":{"id":197,"name":"Nyvoll Caravanplass","type":"motorhome","label":"Wohnmobilstellplatz","place":"Alta","road":"Roneggiveien","quality":43,"qualityLabel":"Vor Ort prüfen","fee":"","wheelchair":"","openingHours":"","website":"","phone":"","access":"","electricity":"yes","source":"https://www.openstreetmap.org/way/891904987","rawName":"Nyvoll Caravanplass","phones":[]}},{"type":"Feature","geometry":{"type":"Point","coordinates":[6.0569026,58.383014]},"properties":{"id":198,"name":"Wohnmobilstellplatz · Sokndalsveien","type":"motorhome","label":"Wohnmobilstellplatz","place":"Eigersund","road":"Sokndalsveien","quality":39,"qualityLabel":"Vor Ort prüfen","fee":"no","wheelchair":"","openingHours":"","website":"","phone":"","access":"","electricity":"no","source":"https://www.openstreetmap.org/node/5043300112","rawName":"Wohnmobilstellplatz · Sokndalsveien","phones":[]}},{"type":"Feature","geometry":{"type":"Point","coordinates":[6.1614602,59.1508949]},"properties":{"id":199,"name":"Wohnmobilstellplatz · Sjøvegen","type":"motorhome","label":"Wohnmobilstellplatz","place":"Hjelmeland","road":"Sjøvegen","quality":39,"qualityLabel":"Vor Ort prüfen","fee":"yes","wheelchair":"","openingHours":"","website":"","phone":"","access":"","electricity":"no","source":"https://www.openstreetmap.org/node/9885172949","rawName":"Wohnmobilstellplatz · Sjøvegen","phones":[]}},{"type":"Feature","geometry":{"type":"Point","coordinates":[9.4184821,58.8747635]},"properties":{"id":200,"name":"Wohnmobilstellplatz · Allemannsveien","type":"motorhome","label":"Wohnmobilstellplatz","place":"Kragerø","road":"Allemannsveien","quality":39,"qualityLabel":"Vor Ort prüfen","fee":"yes","wheelchair":"","openingHours":"","website":"","phone":"","access":"","electricity":"no","source":"https://www.openstreetmap.org/node/12980349631","rawName":"Wohnmobilstellplatz · Allemannsveien","phones":[]}},{"type":"Feature","geometry":{"type":"Point","coordinates":[6.421501,60.624699]},"properties":{"id":201,"name":"Wohnmobilstellplatz · Idrottsvegen","type":"motorhome","label":"Wohnmobilstellplatz","place":"Voss","road":"Idrottsvegen","quality":39,"qualityLabel":"Vor Ort prüfen","fee":"yes","wheelchair":"","openingHours":"","website":"","phone":"","access":"","electricity":"","source":"https://www.openstreetmap.org/way/70278581","rawName":"Wohnmobilstellplatz · Idrottsvegen","phones":[]}},{"type":"Feature","geometry":{"type":"Point","coordinates":[6.8022478,59.6446444]},"properties":{"id":202,"name":"Wohnmobilstellplatz · Nesflōtvegen","type":"motorhome","label":"Wohnmobilstellplatz","place":"Suldal","road":"Nesflōtvegen","quality":39,"qualityLabel":"Vor Ort prüfen","fee":"yes","wheelchair":"","openingHours":"","website":"","phone":"","access":"","electricity":"yes","source":"https://www.openstreetmap.org/node/6593339349","rawName":"Wohnmobilstellplatz · Nesflōtvegen","phones":[]}},{"type":"Feature","geometry":{"type":"Point","coordinates":[10.2999507,59.5437449]},"properties":{"id":203,"name":"Wohnmobilstellplatz · Sandebuktveien","type":"motorhome","label":"Wohnmobilstellplatz","place":"Holmestrand","road":"Sandebuktveien","quality":39,"qualityLabel":"Vor Ort prüfen","fee":"no","wheelchair":"","openingHours":"","website":"","phone":"","access":"","electricity":"no","source":"https://www.openstreetmap.org/way/1420062107","rawName":"Wohnmobilstellplatz · Sandebuktveien","phones":[]}},{"type":"Feature","geometry":{"type":"Point","coordinates":[6.5033001,61.7655449]},"properties":{"id":204,"name":"Wohnmobilstellplatz · Varen","type":"motorhome","label":"Wohnmobilstellplatz","place":"Gloppen","road":"Varen","quality":39,"qualityLabel":"Vor Ort prüfen","fee":"yes","wheelchair":"","openingHours":"","website":"","phone":"","access":"","electricity":"yes","source":"https://www.openstreetmap.org/node/5049114766","rawName":"Wohnmobilstellplatz · Varen","phones":[]}},{"type":"Feature","geometry":{"type":"Point","coordinates":[7.5617589,63.0833154]},